[
  {
    "country_code": "IN",
    "country_id": 101,
    "id": 57837,
    "latitude": "11.70000000",
    "longitude": "92.71667000",
    "name": "Bamboo Flat",
    "state_code": "AN",
    "state_id": 4023
  },
  {
    "country_code": "IN",
    "country_id": 101,
    "id": 133213,
    "latitude": "7.03002000",
    "longitude": "93.79028000",
    "name": "Nicobar",
    "state_code": "AN",
    "state_id": 4023
  },
  {
    "country_code": "IN",
    "country_id": 101,
    "id": 133482,
    "latitude": "11.66613000",
    "longitude": "92.74635000",
    "name": "Port Blair",
    "state_code": "AN",
    "state_id": 4023
  },
  {
    "country_code": "IN",
    "country_id": 101,
    "id": 134006,
    "latitude": "10.75776000",
    "longitude": "92.52136000",
    "name": "South Andaman",
    "state_code": "AN",
    "state_id": 4023
  },
  {
    "country_code": "IN",
    "country_id": 101,
    "id": 57593,
    "latitude": "15.81061000",
    "longitude": "79.97338000",
    "name": "Addanki",
    "state_code": "AP",
    "state_id": 4017
  },
  {
    "country_code": "IN",
    "country_id": 101,
    "id": 134452,
    "latitude": "15.62788000",
    "longitude": "77.27495000",
    "name": "Adoni",
    "state_code": "AP",
    "state_id": 4017
  },
  {
    "country_code": "IN",
    "country_id": 101,
    "id": 57620,
    "latitude": "17.50455000",
    "longitude": "82.56597000",
    "name": "Akasahebpet",
    "state_code": "AP",
    "state_id": 4017
  },
  {
    "country_code": "IN",
    "country_id": 101,
    "id": 57623,
    "latitude": "16.58225000",
    "longitude": "81.38112000",
    "name": "Akividu",
    "state_code": "AP",
    "state_id": 4017
  },
  {
    "country_code": "IN",
    "country_id": 101,
    "id": 57624,
    "latitude": "13.65000000",
    "longitude": "79.42000000",
    "name": "Akkarampalle",
    "state_code": "AP",
    "state_id": 4017
  },
  {
    "country_code": "IN",
    "country_id": 101,
    "id": 57658,
    "latitude": "16.57868000",
    "longitude": "82.00609000",
    "name": "Amalapuram",
    "state_code": "AP",
    "state_id": 4017
  },
  {
    "country_code": "IN",
    "country_id": 101,
    "id": 57690,
    "latitude": "18.41025000",
    "longitude": "83.90295000",
    "name": "Amudalavalasa",
    "state_code": "AP",
    "state_id": 4017
  },
  {
    "country_code": "IN",
    "country_id": 101,
    "id": 57693,
    "latitude": "17.69134000",
    "longitude": "83.00395000",
    "name": "Anakapalle",
    "state_code": "AP",
    "state_id": 4017
  },
  {
    "country_code": "IN",
    "country_id": 101,
    "id": 57698,
    "latitude": "14.55000000",
    "longitude": "77.41667000",
    "name": "Anantapur",
    "state_code": "AP",
    "state_id": 4017
  },
  {
    "country_code": "IN",
    "country_id": 101,
    "id": 57758,
    "latitude": "15.88109000",
    "longitude": "78.58704000",
    "name": "Atmakur",
    "state_code": "AP",
    "state_id": 4017
  },
  {
    "country_code": "IN",
    "country_id": 101,
    "id": 57761,
    "latitude": "16.70000000",
    "longitude": "81.60000000",
    "name": "Attili",
    "state_code": "AP",
    "state_id": 4017
  },
  {
    "country_code": "IN",
    "country_id": 101,
    "id": 57771,
    "latitude": "16.02148000",
    "longitude": "80.91808000",
    "name": "Avanigadda",
    "state_code": "AP",
    "state_id": 4017
  },
  {
    "country_code": "IN",
    "country_id": 101,
    "id": 57794,
    "latitude": "14.74510000",
    "longitude": "79.06288000",
    "name": "Badvel",
    "state_code": "AP",
    "state_id": 4017
  },
  {
    "country_code": "IN",
    "country_id": 101,
    "id": 57849,
    "latitude": "15.31771000",
    "longitude": "78.22669000",
    "name": "Banganapalle",
    "state_code": "AP",
    "state_id": 4017
  },
  {
    "country_code": "IN",
    "country_id": 101,
    "id": 58137,
    "latitude": "15.90422000",
    "longitude": "80.46743000",
    "name": "Bapatla",
    "state_code": "AP",
    "state_id": 4017
  },
  {
    "country_code": "IN",
    "country_id": 101,
    "id": 57939,
    "latitude": "15.45144000",
    "longitude": "78.14797000",
    "name": "Betamcherla",
    "state_code": "AP",
    "state_id": 4017
  },
  {
    "country_code": "IN",
    "country_id": 101,
    "id": 57971,
    "latitude": "16.10260000",
    "longitude": "80.78074000",
    "name": "Bhattiprolu",
    "state_code": "AP",
    "state_id": 4017
  },
  {
    "country_code": "IN",
    "country_id": 101,
    "id": 58021,
    "latitude": "16.54078000",
    "longitude": "81.52322000",
    "name": "Bhimavaram",
    "state_code": "AP",
    "state_id": 4017
  },
  {
    "country_code": "IN",
    "country_id": 101,
    "id": 58022,
    "latitude": "17.89017000",
    "longitude": "83.45203000",
    "name": "Bhimunipatnam",
    "state_code": "AP",
    "state_id": 4017
  },
  {
    "country_code": "IN",
    "country_id": 101,
    "id": 58070,
    "latitude": "18.57366000",
    "longitude": "83.35925000",
    "name": "Bobbili",
    "state_code": "AP",
    "state_id": 4017
  },
  {
    "country_code": "IN",
    "country_id": 101,
    "id": 58179,
    "latitude": "16.11756000",
    "longitude": "80.93139000",
    "name": "Challapalle",
    "state_code": "AP",
    "state_id": 4017
  },
  {
    "country_code": "IN",
    "country_id": 101,
    "id": 131514,
    "latitude": "15.89794000",
    "longitude": "79.32129000",
    "name": "Chemmumiahpet",
    "state_code": "AP",
    "state_id": 4017
  },
  {
    "country_code": "IN",
    "country_id": 101,
    "id": 131556,
    "latitude": "16.08987000",
    "longitude": "80.16705000",
    "name": "Chilakalurupet",
    "state_code": "AP",
    "state_id": 4017
  },
  {
    "country_code": "IN",
    "country_id": 101,
    "id": 131563,
    "latitude": "14.47516000",
    "longitude": "78.83540000",
    "name": "Chinnachowk",
    "state_code": "AP",
    "state_id": 4017
  },
  {
    "country_code": "IN",
    "country_id": 101,
    "id": 131611,
    "latitude": "18.31142000",
    "longitude": "83.56846000",
    "name": "Chipurupalle",
    "state_code": "AP",
    "state_id": 4017
  },
  {
    "country_code": "IN",
    "country_id": 101,
    "id": 131612,
    "latitude": "15.82385000",
    "longitude": "80.35219000",
    "name": "Chirala",
    "state_code": "AP",
    "state_id": 4017
  },
  {
    "country_code": "IN",
    "country_id": 101,
    "id": 131575,
    "latitude": "13.41667000",
    "longitude": "79.00000000",
    "name": "Chittoor",
    "state_code": "AP",
    "state_id": 4017
  },
  {
    "country_code": "IN",
    "country_id": 101,
    "id": 131577,
    "latitude": "17.82884000",
    "longitude": "82.93526000",
    "name": "Chodavaram",
    "state_code": "AP",
    "state_id": 4017
  },
  {
    "country_code": "IN",
    "country_id": 101,
    "id": 131627,
    "latitude": "14.41667000",
    "longitude": "78.75000000",
    "name": "Cuddapah",
    "state_code": "AP",
    "state_id": 4017
  },
  {
    "country_code": "IN",
    "country_id": 101,
    "id": 131628,
    "latitude": "15.58171000",
    "longitude": "79.11059000",
    "name": "Cumbum",
    "state_code": "AP",
    "state_id": 4017
  },
  {
    "country_code": "IN",
    "country_id": 101,
    "id": 131658,
    "latitude": "15.76978000",
    "longitude": "79.67939000",
    "name": "Darsi",
    "state_code": "AP",
    "state_id": 4017
  },
  {
    "country_code": "IN",
    "country_id": 101,
    "id": 131727,
    "latitude": "14.41435000",
    "longitude": "77.72035000",
    "name": "Dharmavaram",
    "state_code": "AP",
    "state_id": 4017
  },
  {
    "country_code": "IN",
    "country_id": 101,
    "id": 131740,
    "latitude": "15.39520000",
    "longitude": "77.87150000",
    "name": "Dhone",
    "state_code": "AP",
    "state_id": 4017
  },
  {
    "country_code": "IN",
    "country_id": 101,
    "id": 131769,
    "latitude": "15.39507000",
    "longitude": "78.82930000",
    "name": "Diguvametta",
    "state_code": "AP",
    "state_id": 4017
  },
  {
    "country_code": "IN",
    "country_id": 101,
    "id": 131823,
    "latitude": "17.83333000",
    "longitude": "81.83333000",
    "name": "East Godavari",
    "state_code": "AP",
    "state_id": 4017
  },
  {
    "country_code": "IN",
    "country_id": 101,
    "id": 131830,
    "latitude": "17.54907000",
    "longitude": "82.85749000",
    "name": "Elamanchili",
    "state_code": "AP",
    "state_id": 4017
  },
  {
    "country_code": "IN",
    "country_id": 101,
    "id": 131832,
    "latitude": "16.71311000",
    "longitude": "81.10437000",
    "name": "Ellore",
    "state_code": "AP",
    "state_id": 4017
  },
  {
    "country_code": "IN",
    "country_id": 101,
    "id": 131836,
    "latitude": "15.77203000",
    "longitude": "77.48345000",
    "name": "Emmiganur",
    "state_code": "AP",
    "state_id": 4017
  },
  {
    "country_code": "IN",
    "country_id": 101,
    "id": 131842,
    "latitude": "14.63853000",
    "longitude": "78.53974000",
    "name": "Erraguntla",
    "state_code": "AP",
    "state_id": 4017
  },
  {
    "country_code": "IN",
    "country_id": 101,
    "id": 131846,
    "latitude": "17.50000000",
    "longitude": "82.73333000",
    "name": "Etikoppaka",
    "state_code": "AP",
    "state_id": 4017
  },
  {
    "country_code": "IN",
    "country_id": 101,
    "id": 131895,
    "latitude": "17.70000000",
    "longitude": "83.21667000",
    "name": "Gajuwaka",
    "state_code": "AP",
    "state_id": 4017
  },
  {
    "country_code": "IN",
    "country_id": 101,
    "id": 131906,
    "latitude": "18.66667000",
    "longitude": "84.11667000",
    "name": "Ganguvada",
    "state_code": "AP",
    "state_id": 4017
  },
  {
    "country_code": "IN",
    "country_id": 101,
    "id": 131915,
    "latitude": "16.54092000",
    "longitude": "80.80213000",
    "name": "Gannavaram",
    "state_code": "AP",
    "state_id": 4017
  },
  {
    "country_code": "IN",
    "country_id": 101,
    "id": 131955,
    "latitude": "15.37439000",
    "longitude": "78.92609000",
    "name": "Giddalur",
    "state_code": "AP",
    "state_id": 4017
  },
  {
    "country_code": "IN",
    "country_id": 101,
    "id": 131972,
    "latitude": "17.25823000",
    "longitude": "81.84985000",
    "name": "Gokavaram",
    "state_code": "AP",
    "state_id": 4017
  },
  {
    "country_code": "IN",
    "country_id": 101,
    "id": 131993,
    "latitude": "13.98411000",
    "longitude": "77.77224000",
    "name": "Gorantla",
    "state_code": "AP",
    "state_id": 4017
  },
  {
    "country_code": "IN",
    "country_id": 101,
    "id": 132001,
    "latitude": "16.15477000",
    "longitude": "80.10279000",
    "name": "Govindapuram,Chilakaluripet,Guntur",
    "state_code": "AP",
    "state_id": 4017
  },
  {
    "country_code": "IN",
    "country_id": 101,
    "id": 132010,
    "latitude": "16.43547000",
    "longitude": "80.99555000",
    "name": "Gudivada",
    "state_code": "AP",
    "state_id": 4017
  },
  {
    "country_code": "IN",
    "country_id": 101,
    "id": 132012,
    "latitude": "16.35000000",
    "longitude": "81.05000000",
    "name": "Gudlavalleru",
    "state_code": "AP",
    "state_id": 4017
  },
  {
    "country_code": "IN",
    "country_id": 101,
    "id": 132051,
    "latitude": "14.15093000",
    "longitude": "79.85210000",
    "name": "Gudur",
    "state_code": "AP",
    "state_id": 4017
  },
  {
    "country_code": "IN",
    "country_id": 101,
    "id": 132027,
    "latitude": "15.17112000",
    "longitude": "77.36244000",
    "name": "Guntakal Junction",
    "state_code": "AP",
    "state_id": 4017
  },
  {
    "country_code": "IN",
    "country_id": 101,
    "id": 132028,
    "latitude": "16.29974000",
    "longitude": "80.45729000",
    "name": "Guntur",
    "state_code": "AP",
    "state_id": 4017
  },
  {
    "country_code": "IN",
    "country_id": 101,
    "id": 132099,
    "latitude": "13.82807000",
    "longitude": "77.49143000",
    "name": "Hindupur",
    "state_code": "AP",
    "state_id": 4017
  },
  {
    "country_code": "IN",
    "country_id": 101,
    "id": 132151,
    "latitude": "19.11393000",
    "longitude": "84.68721000",
    "name": "Ichchapuram",
    "state_code": "AP",
    "state_id": 4017
  },
  {
    "country_code": "IN",
    "country_id": 101,
    "id": 132189,
    "latitude": "16.89380000",
    "longitude": "80.09807000",
    "name": "Jaggayyapeta",
    "state_code": "AP",
    "state_id": 4017
  },
  {
    "country_code": "IN",
    "country_id": 101,
    "id": 132228,
    "latitude": "14.84677000",
    "longitude": "78.38314000",
    "name": "Jammalamadugu",
    "state_code": "AP",
    "state_id": 4017
  },
  {
    "country_code": "IN",
    "country_id": 101,
    "id": 132328,
    "latitude": "14.11168000",
    "longitude": "78.15982000",
    "name": "Kadiri",
    "state_code": "AP",
    "state_id": 4017
  },
  {
    "country_code": "IN",
    "country_id": 101,
    "id": 132332,
    "latitude": "16.55154000",
    "longitude": "81.21400000",
    "name": "Kaikalur",
    "state_code": "AP",
    "state_id": 4017
  },
  {
    "country_code": "IN",
    "country_id": 101,
    "id": 132678,
    "latitude": "16.96036000",
    "longitude": "82.23809000",
    "name": "Kakinada",
    "state_code": "AP",
    "state_id": 4017
  },
  {
    "country_code": "IN",
    "country_id": 101,
    "id": 132358,
    "latitude": "14.54519000",
    "longitude": "77.10552000",
    "name": "Kalyandurg",
    "state_code": "AP",
    "state_id": 4017
  },
  {
    "country_code": "IN",
    "country_id": 101,
    "id": 132691,
    "latitude": "14.59830000",
    "longitude": "78.66948000",
    "name": "Kamalapuram",
    "state_code": "AP",
    "state_id": 4017
  },
  {
    "country_code": "IN",
    "country_id": 101,
    "id": 132372,
    "latitude": "15.21542000",
    "longitude": "79.90390000",
    "name": "Kandukur",
    "state_code": "AP",
    "state_id": 4017
  },
  {
    "country_code": "IN",
    "country_id": 101,
    "id": 132374,
    "latitude": "15.40555000",
    "longitude": "79.50694000",
    "name": "Kanigiri",
    "state_code": "AP",
    "state_id": 4017
  },
  {
    "country_code": "IN",
    "country_id": 101,
    "id": 132376,
    "latitude": "16.43530000",
    "longitude": "80.76715000",
    "name": "Kankipadu",
    "state_code": "AP",
    "state_id": 4017
  },
  {
    "country_code": "IN",
    "country_id": 101,
    "id": 132388,
    "latitude": "16.28584000",
    "longitude": "81.25464000",
    "name": "Kanuru",
    "state_code": "AP",
    "state_id": 4017
  },
  {
    "country_code": "IN",
    "country_id": 101,
    "id": 132729,
    "latitude": "14.91630000",
    "longitude": "79.99449000",
    "name": "Kavali",
    "state_code": "AP",
    "state_id": 4017
  },
  {
    "country_code": "IN",
    "country_id": 101,
    "id": 132552,
    "latitude": "16.45392000",
    "longitude": "80.61046000",
    "name": "Kolanukonda",
    "state_code": "AP",
    "state_id": 4017
  },
  {
    "country_code": "IN",
    "country_id": 101,
    "id": 132567,
    "latitude": "16.61989000",
    "longitude": "80.54244000",
    "name": "Kondapalle",
    "state_code": "AP",
    "state_id": 4017
  },
  {
    "country_code": "IN",
    "country_id": 101,
    "id": 132584,
    "latitude": "16.50000000",
    "longitude": "81.25000000",
    "name": "Korukollu",
    "state_code": "AP",
    "state_id": 4017
  },
  {
    "country_code": "IN",
    "country_id": 101,
    "id": 132590,
    "latitude": "15.85510000",
    "longitude": "77.24463000",
    "name": "Kosigi",
    "state_code": "AP",
    "state_id": 4017
  },
  {
    "country_code": "IN",
    "country_id": 101,
    "id": 132616,
    "latitude": "17.01620000",
    "longitude": "81.72934000",
    "name": "Kovvur",
    "state_code": "AP",
    "state_id": 4017
  },
  {
    "country_code": "IN",
    "country_id": 101,
    "id": 132621,
    "latitude": "16.66667000",
    "longitude": "81.00000000",
    "name": "Krishna",
    "state_code": "AP",
    "state_id": 4017
  },
  {
    "country_code": "IN",
    "country_id": 101,
    "id": 132653,
    "latitude": "12.74931000",
    "longitude": "78.34189000",
    "name": "Kuppam",
    "state_code": "AP",
    "state_id": 4017
  },
  {
    "country_code": "IN",
    "country_id": 101,
    "id": 132660,
    "latitude": "15.58333000",
    "longitude": "78.33333000",
    "name": "Kurnool",
    "state_code": "AP",
    "state_id": 4017
  },
  {
    "country_code": "IN",
    "country_id": 101,
    "id": 133055,
    "latitude": "16.47635000",
    "longitude": "79.43533000",
    "name": "Macherla",
    "state_code": "AP",
    "state_id": 4017
  },
  {
    "country_code": "IN",
    "country_id": 101,
    "id": 132806,
    "latitude": "16.18747000",
    "longitude": "81.13888000",
    "name": "Machilipatnam",
    "state_code": "AP",
    "state_id": 4017
  },
  {
    "country_code": "IN",
    "country_id": 101,
    "id": 132808,
    "latitude": "13.55030000",
    "longitude": "78.50288000",
    "name": "Madanapalle",
    "state_code": "AP",
    "state_id": 4017
  },
  {
    "country_code": "IN",
    "country_id": 101,
    "id": 133059,
    "latitude": "17.91589000",
    "longitude": "82.81578000",
    "name": "Madugula",
    "state_code": "AP",
    "state_id": 4017
  },
  {
    "country_code": "IN",
    "country_id": 101,
    "id": 132890,
    "latitude": "16.86254000",
    "longitude": "81.92921000",
    "name": "Mandapeta",
    "state_code": "AP",
    "state_id": 4017
  },
  {
    "country_code": "IN",
    "country_id": 101,
    "id": 132891,
    "latitude": "18.86830000",
    "longitude": "84.46296000",
    "name": "Mandasa",
    "state_code": "AP",
    "state_id": 4017
  },
  {
    "country_code": "IN",
    "country_id": 101,
    "id": 132902,
    "latitude": "16.43083000",
    "longitude": "80.56815000",
    "name": "Mangalagiri",
    "state_code": "AP",
    "state_id": 4017
  },
  {
    "country_code": "IN",
    "country_id": 101,
    "id": 133088,
    "latitude": "15.73534000",
    "longitude": "79.26848000",
    "name": "Markapur",
    "state_code": "AP",
    "state_id": 4017
  },
  {
    "country_code": "IN",
    "country_id": 101,
    "id": 133114,
    "latitude": "13.32139000",
    "longitude": "79.58557000",
    "name": "Nagari",
    "state_code": "AP",
    "state_id": 4017
  },
  {
    "country_code": "IN",
    "country_id": 101,
    "id": 133258,
    "latitude": "14.27005000",
    "longitude": "79.10131000",
    "name": "Nagireddipalli",
    "state_code": "AP",
    "state_id": 4017
  },
  {
    "country_code": "IN",
    "country_id": 101,
    "id": 133143,
    "latitude": "16.77170000",
    "longitude": "80.28596000",
    "name": "Nandigama",
    "state_code": "AP",
    "state_id": 4017
  },
  {
    "country_code": "IN",
    "country_id": 101,
    "id": 133144,
    "latitude": "15.85668000",
    "longitude": "78.26569000",
    "name": "Nandikotkur",
    "state_code": "AP",
    "state_id": 4017
  },
  {
    "country_code": "IN",
    "country_id": 101,
    "id": 133146,
    "latitude": "15.47799000",
    "longitude": "78.48360000",
    "name": "Nandyal",
    "state_code": "AP",
    "state_id": 4017
  },
  {
    "country_code": "IN",
    "country_id": 101,
    "id": 133156,
    "latitude": "18.41428000",
    "longitude": "84.04463000",
    "name": "Narasannapeta",
    "state_code": "AP",
    "state_id": 4017
  },
  {
    "country_code": "IN",
    "country_id": 101,
    "id": 133157,
    "latitude": "16.43425000",
    "longitude": "81.69845000",
    "name": "Narasapur",
    "state_code": "AP",
    "state_id": 4017
  },
  {
    "country_code": "IN",
    "country_id": 101,
    "id": 133158,
    "latitude": "16.23488000",
    "longitude": "80.04927000",
    "name": "Narasaraopet",
    "state_code": "AP",
    "state_id": 4017
  },
  {
    "country_code": "IN",
    "country_id": 101,
    "id": 133160,
    "latitude": "13.60759000",
    "longitude": "79.31652000",
    "name": "Narasingapuram",
    "state_code": "AP",
    "state_id": 4017
  },
  {
    "country_code": "IN",
    "country_id": 101,
    "id": 133275,
    "latitude": "13.42565000",
    "longitude": "79.58881000",
    "name": "Narayanavanam",
    "state_code": "AP",
    "state_id": 4017
  },
  {
    "country_code": "IN",
    "country_id": 101,
    "id": 133173,
    "latitude": "17.66709000",
    "longitude": "82.61245000",
    "name": "Narsipatnam",
    "state_code": "AP",
    "state_id": 4017
  },
  {
    "country_code": "IN",
    "country_id": 101,
    "id": 133283,
    "latitude": "13.90742000",
    "longitude": "79.89465000",
    "name": "Nayudupet",
    "state_code": "AP",
    "state_id": 4017
  },
  {
    "country_code": "IN",
    "country_id": 101,
    "id": 133206,
    "latitude": "14.08333000",
    "longitude": "79.58333000",
    "name": "Nellore",
    "state_code": "AP",
    "state_id": 4017
  },
  {
    "country_code": "IN",
    "country_id": 101,
    "id": 133214,
    "latitude": "16.90572000",
    "longitude": "81.67222000",
    "name": "Nidadavole",
    "state_code": "AP",
    "state_id": 4017
  },
  {
    "country_code": "IN",
    "country_id": 101,
    "id": 133294,
    "latitude": "16.78854000",
    "longitude": "80.84593000",
    "name": "Nuzvid",
    "state_code": "AP",
    "state_id": 4017
  },
  {
    "country_code": "IN",
    "country_id": 101,
    "id": 133300,
    "latitude": "15.50357000",
    "longitude": "80.04454000",
    "name": "Ongole",
    "state_code": "AP",
    "state_id": 4017
  },
  {
    "country_code": "IN",
    "country_id": 101,
    "id": 133521,
    "latitude": "13.44903000",
    "longitude": "79.11493000",
    "name": "Pakala",
    "state_code": "AP",
    "state_id": 4017
  },
  {
    "country_code": "IN",
    "country_id": 101,
    "id": 133523,
    "latitude": "16.51670000",
    "longitude": "81.73000000",
    "name": "Palakollu",
    "state_code": "AP",
    "state_id": 4017
  },
  {
    "country_code": "IN",
    "country_id": 101,
    "id": 133340,
    "latitude": "18.77257000",
    "longitude": "84.41012000",
    "name": "Palasa",
    "state_code": "AP",
    "state_id": 4017
  },
  {
    "country_code": "IN",
    "country_id": 101,
    "id": 133534,
    "latitude": "18.60374000",
    "longitude": "83.75568000",
    "name": "Palkonda",
    "state_code": "AP",
    "state_id": 4017
  },
  {
    "country_code": "IN",
    "country_id": 101,
    "id": 133331,
    "latitude": "16.57790000",
    "longitude": "81.29463000",
    "name": "Pallevada",
    "state_code": "AP",
    "state_id": 4017
  },
  {
    "country_code": "IN",
    "country_id": 101,
    "id": 133336,
    "latitude": "13.20000000",
    "longitude": "78.74725000",
    "name": "Palmaner",
    "state_code": "AP",
    "state_id": 4017
  },
  {
    "country_code": "IN",
    "country_id": 101,
    "id": 133361,
    "latitude": "18.78113000",
    "longitude": "84.08836000",
    "name": "Parlakimidi",
    "state_code": "AP",
    "state_id": 4017
  },
  {
    "country_code": "IN",
    "country_id": 101,
    "id": 133549,
    "latitude": "18.78392000",
    "longitude": "83.42569000",
    "name": "Parvatipuram",
    "state_code": "AP",
    "state_id": 4017
  },
  {
    "country_code": "IN",
    "country_id": 101,
    "id": 133395,
    "latitude": "15.85292000",
    "longitude": "80.16468000",
    "name": "Pavuluru",
    "state_code": "AP",
    "state_id": 4017
  },
  {
    "country_code": "IN",
    "country_id": 101,
    "id": 133400,
    "latitude": "16.25582000",
    "longitude": "81.14378000",
    "name": "Pedana",
    "state_code": "AP",
    "state_id": 4017
  },
  {
    "country_code": "IN",
    "country_id": 101,
    "id": 134447,
    "latitude": "15.86680000",
    "longitude": "80.16202000",
    "name": "pedda nakkalapalem",
    "state_code": "AP",
    "state_id": 4017
  },
  {
    "country_code": "IN",
    "country_id": 101,
    "id": 133402,
    "latitude": "17.07701000",
    "longitude": "82.13836000",
    "name": "Peddapuram",
    "state_code": "AP",
    "state_id": 4017
  },
  {
    "country_code": "IN",
    "country_id": 101,
    "id": 133409,
    "latitude": "16.65363000",
    "longitude": "81.74550000",
    "name": "Penugonda",
    "state_code": "AP",
    "state_id": 4017
  },
  {
    "country_code": "IN",
    "country_id": 101,
    "id": 133410,
    "latitude": "14.08286000",
    "longitude": "77.59473000",
    "name": "Penukonda",
    "state_code": "AP",
    "state_id": 4017
  },
  {
    "country_code": "IN",
    "country_id": 101,
    "id": 133440,
    "latitude": "16.29078000",
    "longitude": "80.26233000",
    "name": "Phirangipuram",
    "state_code": "AP",
    "state_id": 4017
  },
  {
    "country_code": "IN",
    "country_id": 101,
    "id": 133455,
    "latitude": "16.71667000",
    "longitude": "81.55000000",
    "name": "Pippara",
    "state_code": "AP",
    "state_id": 4017
  },
  {
    "country_code": "IN",
    "country_id": 101,
    "id": 133465,
    "latitude": "17.11680000",
    "longitude": "82.25284000",
    "name": "Pithapuram",
    "state_code": "AP",
    "state_id": 4017
  },
  {
    "country_code": "IN",
    "country_id": 101,
    "id": 133468,
    "latitude": "17.24754000",
    "longitude": "81.64372000",
    "name": "Polavaram",
    "state_code": "AP",
    "state_id": 4017
  },
  {
    "country_code": "IN",
    "country_id": 101,
    "id": 133476,
    "latitude": "16.07114000",
    "longitude": "80.54944000",
    "name": "Ponnur",
    "state_code": "AP",
    "state_id": 4017
  },
  {
    "country_code": "IN",
    "country_id": 101,
    "id": 133478,
    "latitude": "16.06547000",
    "longitude": "80.55203000",
    "name": "Ponnuru",
    "state_code": "AP",
    "state_id": 4017
  },
  {
    "country_code": "IN",
    "country_id": 101,
    "id": 133485,
    "latitude": "15.50000000",
    "longitude": "79.50000000",
    "name": "Prakasam",
    "state_code": "AP",
    "state_id": 4017
  },
  {
    "country_code": "IN",
    "country_id": 101,
    "id": 133489,
    "latitude": "14.75020000",
    "longitude": "78.54813000",
    "name": "Proddatur",
    "state_code": "AP",
    "state_id": 4017
  },
  {
    "country_code": "IN",
    "country_id": 101,
    "id": 133497,
    "latitude": "14.42139000",
    "longitude": "78.22502000",
    "name": "Pulivendla",
    "state_code": "AP",
    "state_id": 4017
  },
  {
    "country_code": "IN",
    "country_id": 101,
    "id": 133506,
    "latitude": "13.36672000",
    "longitude": "78.57186000",
    "name": "Punganuru",
    "state_code": "AP",
    "state_id": 4017
  },
  {
    "country_code": "IN",
    "country_id": 101,
    "id": 133517,
    "latitude": "14.16520000",
    "longitude": "77.81170000",
    "name": "Puttaparthi",
    "state_code": "AP",
    "state_id": 4017
  },
  {
    "country_code": "IN",
    "country_id": 101,
    "id": 133519,
    "latitude": "13.44189000",
    "longitude": "79.55314000",
    "name": "Puttur",
    "state_code": "AP",
    "state_id": 4017
  },
  {
    "country_code": "IN",
    "country_id": 101,
    "id": 133671,
    "latitude": "17.00517000",
    "longitude": "81.77784000",
    "name": "Rajahmundry",
    "state_code": "AP",
    "state_id": 4017
  },
  {
    "country_code": "IN",
    "country_id": 101,
    "id": 133691,
    "latitude": "16.83636000",
    "longitude": "82.02871000",
    "name": "Ramachandrapuram",
    "state_code": "AP",
    "state_id": 4017
  },
  {
    "country_code": "IN",
    "country_id": 101,
    "id": 133600,
    "latitude": "16.94516000",
    "longitude": "82.23850000",
    "name": "Ramanayyapeta",
    "state_code": "AP",
    "state_id": 4017
  },
  {
    "country_code": "IN",
    "country_id": 101,
    "id": 133712,
    "latitude": "15.28749000",
    "longitude": "77.86722000",
    "name": "Ramapuram",
    "state_code": "AP",
    "state_id": 4017
  },
  {
    "country_code": "IN",
    "country_id": 101,
    "id": 133605,
    "latitude": "17.44088000",
    "longitude": "81.77558000",
    "name": "Rampachodavaram",
    "state_code": "AP",
    "state_id": 4017
  },
  {
    "country_code": "IN",
    "country_id": 101,
    "id": 133729,
    "latitude": "14.05723000",
    "longitude": "78.75056000",
    "name": "Rayachoti",
    "state_code": "AP",
    "state_id": 4017
  },
  {
    "country_code": "IN",
    "country_id": 101,
    "id": 133730,
    "latitude": "14.69971000",
    "longitude": "76.85241000",
    "name": "Rayadrug",
    "state_code": "AP",
    "state_id": 4017
  },
  {
    "country_code": "IN",
    "country_id": 101,
    "id": 133734,
    "latitude": "18.44909000",
    "longitude": "83.65957000",
    "name": "Razam",
    "state_code": "AP",
    "state_id": 4017
  },
  {
    "country_code": "IN",
    "country_id": 101,
    "id": 133732,
    "latitude": "14.19544000",
    "longitude": "79.15896000",
    "name": "Razampeta",
    "state_code": "AP",
    "state_id": 4017
  },
  {
    "country_code": "IN",
    "country_id": 101,
    "id": 133733,
    "latitude": "16.47608000",
    "longitude": "81.83912000",
    "name": "Razole",
    "state_code": "AP",
    "state_id": 4017
  },
  {
    "country_code": "IN",
    "country_id": 101,
    "id": 133627,
    "latitude": "13.65143000",
    "longitude": "79.51256000",
    "name": "Renigunta",
    "state_code": "AP",
    "state_id": 4017
  },
  {
    "country_code": "IN",
    "country_id": 101,
    "id": 133630,
    "latitude": "16.01840000",
    "longitude": "80.82958000",
    "name": "Repalle",
    "state_code": "AP",
    "state_id": 4017
  },
  {
    "country_code": "IN",
    "country_id": 101,
    "id": 134065,
    "latitude": "18.51716000",
    "longitude": "83.20548000",
    "name": "Salur",
    "state_code": "AP",
    "state_id": 4017
  },
  {
    "country_code": "IN",
    "country_id": 101,
    "id": 134066,
    "latitude": "17.05675000",
    "longitude": "82.17639000",
    "name": "Samalkot",
    "state_code": "AP",
    "state_id": 4017
  },
  {
    "country_code": "IN",
    "country_id": 101,
    "id": 133822,
    "latitude": "16.39381000",
    "longitude": "80.15221000",
    "name": "Sattenapalle",
    "state_code": "AP",
    "state_id": 4017
  },
  {
    "country_code": "IN",
    "country_id": 101,
    "id": 133946,
    "latitude": "15.23046000",
    "longitude": "80.02794000",
    "name": "Singarayakonda",
    "state_code": "AP",
    "state_id": 4017
  },
  {
    "country_code": "IN",
    "country_id": 101,
    "id": 133990,
    "latitude": "18.94419000",
    "longitude": "84.58449000",
    "name": "Sompeta",
    "state_code": "AP",
    "state_id": 4017
  },
  {
    "country_code": "IN",
    "country_id": 101,
    "id": 134019,
    "latitude": "18.29890000",
    "longitude": "83.89751000",
    "name": "Srikakulam",
    "state_code": "AP",
    "state_id": 4017
  },
  {
    "country_code": "IN",
    "country_id": 101,
    "id": 134032,
    "latitude": "16.07217000",
    "longitude": "78.86816000",
    "name": "Srisailain",
    "state_code": "AP",
    "state_id": 4017
  },
  {
    "country_code": "IN",
    "country_id": 101,
    "id": 134093,
    "latitude": "13.70000000",
    "longitude": "80.01667000",
    "name": "Suluru",
    "state_code": "AP",
    "state_id": 4017
  },
  {
    "country_code": "IN",
    "country_id": 101,
    "id": 134226,
    "latitude": "16.48333000",
    "longitude": "80.60000000",
    "name": "Tadepalle",
    "state_code": "AP",
    "state_id": 4017
  },
  {
    "country_code": "IN",
    "country_id": 101,
    "id": 134227,
    "latitude": "16.81467000",
    "longitude": "81.52717000",
    "name": "Tadepallegudem",
    "state_code": "AP",
    "state_id": 4017
  },
  {
    "country_code": "IN",
    "country_id": 101,
    "id": 134228,
    "latitude": "14.90832000",
    "longitude": "78.01031000",
    "name": "Tadpatri",
    "state_code": "AP",
    "state_id": 4017
  },
  {
    "country_code": "IN",
    "country_id": 101,
    "id": 134113,
    "latitude": "16.75438000",
    "longitude": "81.68143000",
    "name": "Tanuku",
    "state_code": "AP",
    "state_id": 4017
  },
  {
    "country_code": "IN",
    "country_id": 101,
    "id": 134126,
    "latitude": "18.60570000",
    "longitude": "84.23546000",
    "name": "Tekkali",
    "state_code": "AP",
    "state_id": 4017
  },
  {
    "country_code": "IN",
    "country_id": 101,
    "id": 134183,
    "latitude": "13.68333000",
    "longitude": "79.35000000",
    "name": "Tirumala",
    "state_code": "AP",
    "state_id": 4017
  },
  {
    "country_code": "IN",
    "country_id": 101,
    "id": 134187,
    "latitude": "13.63551000",
    "longitude": "79.41989000",
    "name": "Tirupati",
    "state_code": "AP",
    "state_id": 4017
  },
  {
    "country_code": "IN",
    "country_id": 101,
    "id": 134222,
    "latitude": "17.35905000",
    "longitude": "82.54607000",
    "name": "Tuni",
    "state_code": "AP",
    "state_id": 4017
  },
  {
    "country_code": "IN",
    "country_id": 101,
    "id": 134292,
    "latitude": "14.94348000",
    "longitude": "77.25494000",
    "name": "Uravakonda",
    "state_code": "AP",
    "state_id": 4017
  },
  {
    "country_code": "IN",
    "country_id": 101,
    "id": 134448,
    "latitude": "17.09545000",
    "longitude": "82.16565000",
    "name": "vadlamuru",
    "state_code": "AP",
    "state_id": 4017
  },
  {
    "country_code": "IN",
    "country_id": 101,
    "id": 134308,
    "latitude": "14.31119000",
    "longitude": "79.80430000",
    "name": "Vadlapudi",
    "state_code": "AP",
    "state_id": 4017
  },
  {
    "country_code": "IN",
    "country_id": 101,
    "id": 134347,
    "latitude": "13.96005000",
    "longitude": "79.58032000",
    "name": "Venkatagiri",
    "state_code": "AP",
    "state_id": 4017
  },
  {
    "country_code": "IN",
    "country_id": 101,
    "id": 134348,
    "latitude": "17.77844000",
    "longitude": "83.21577000",
    "name": "Vepagunta",
    "state_code": "AP",
    "state_id": 4017
  },
  {
    "country_code": "IN",
    "country_id": 101,
    "id": 134350,
    "latitude": "15.78502000",
    "longitude": "80.30663000",
    "name": "Vetapalem",
    "state_code": "AP",
    "state_id": 4017
  },
  {
    "country_code": "IN",
    "country_id": 101,
    "id": 134356,
    "latitude": "16.50745000",
    "longitude": "80.64660000",
    "name": "Vijayawada",
    "state_code": "AP",
    "state_id": 4017
  },
  {
    "country_code": "IN",
    "country_id": 101,
    "id": 134364,
    "latitude": "16.05310000",
    "longitude": "79.73964000",
    "name": "Vinukonda",
    "state_code": "AP",
    "state_id": 4017
  },
  {
    "country_code": "IN",
    "country_id": 101,
    "id": 134369,
    "latitude": "17.68009000",
    "longitude": "83.20161000",
    "name": "Visakhapatnam",
    "state_code": "AP",
    "state_id": 4017
  },
  {
    "country_code": "IN",
    "country_id": 101,
    "id": 134373,
    "latitude": "18.11692000",
    "longitude": "83.41148000",
    "name": "Vizianagaram",
    "state_code": "AP",
    "state_id": 4017
  },
  {
    "country_code": "IN",
    "country_id": 101,
    "id": 134374,
    "latitude": "18.41102000",
    "longitude": "83.37677000",
    "name": "Vizianagaram District",
    "state_code": "AP",
    "state_id": 4017
  },
  {
    "country_code": "IN",
    "country_id": 101,
    "id": 134377,
    "latitude": "16.36307000",
    "longitude": "80.84406000",
    "name": "Vuyyuru",
    "state_code": "AP",
    "state_id": 4017
  },
  {
    "country_code": "IN",
    "country_id": 101,
    "id": 134407,
    "latitude": "17.00000000",
    "longitude": "81.16667000",
    "name": "West Godavari",
    "state_code": "AP",
    "state_id": 4017
  },
  {
    "country_code": "IN",
    "country_id": 101,
    "id": 134424,
    "latitude": "16.73308000",
    "longitude": "82.21364000",
    "name": "Yanam",
    "state_code": "AP",
    "state_id": 4017
  },
  {
    "country_code": "IN",
    "country_id": 101,
    "id": 134426,
    "latitude": "16.48531000",
    "longitude": "80.66746000",
    "name": "Yanamalakuduru",
    "state_code": "AP",
    "state_id": 4017
  },
  {
    "country_code": "IN",
    "country_id": 101,
    "id": 134437,
    "latitude": "17.65872000",
    "longitude": "83.27419000",
    "name": "Yarada",
    "state_code": "AP",
    "state_id": 4017
  },
  {
    "country_code": "IN",
    "country_id": 101,
    "id": 57645,
    "latitude": "28.16951000",
    "longitude": "94.80060000",
    "name": "Along",
    "state_code": "AR",
    "state_id": 4024
  },
  {
    "country_code": "IN",
    "country_id": 101,
    "id": 57708,
    "latitude": "28.06549000",
    "longitude": "96.82878000",
    "name": "Anjaw",
    "state_code": "AR",
    "state_id": 4024
  },
  {
    "country_code": "IN",
    "country_id": 101,
    "id": 58151,
    "latitude": "27.99008000",
    "longitude": "94.69451000",
    "name": "Basar",
    "state_code": "AR",
    "state_id": 4024
  },
  {
    "country_code": "IN",
    "country_id": 101,
    "id": 58080,
    "latitude": "27.26475000",
    "longitude": "92.42472000",
    "name": "Bomdila",
    "state_code": "AR",
    "state_id": 4024
  },
  {
    "country_code": "IN",
    "country_id": 101,
    "id": 58196,
    "latitude": "27.36265000",
    "longitude": "96.34518000",
    "name": "Changlang",
    "state_code": "AR",
    "state_id": 4024
  },
  {
    "country_code": "IN",
    "country_id": 101,
    "id": 131763,
    "latitude": "28.70000000",
    "longitude": "95.70000000",
    "name": "Dibang Valley",
    "state_code": "AR",
    "state_id": 4024
  },
  {
    "country_code": "IN",
    "country_id": 101,
    "id": 131826,
    "latitude": "27.30000000",
    "longitude": "93.05000000",
    "name": "East Kameng",
    "state_code": "AR",
    "state_id": 4024
  },
  {
    "country_code": "IN",
    "country_id": 101,
    "id": 131828,
    "latitude": "28.12379000",
    "longitude": "95.16339000",
    "name": "East Siang",
    "state_code": "AR",
    "state_id": 4024
  },
  {
    "country_code": "IN",
    "country_id": 101,
    "id": 132090,
    "latitude": "28.07301000",
    "longitude": "96.54305000",
    "name": "Hayuliang",
    "state_code": "AR",
    "state_id": 4024
  },
  {
    "country_code": "IN",
    "country_id": 101,
    "id": 132178,
    "latitude": "27.08694000",
    "longitude": "93.60987000",
    "name": "Itanagar",
    "state_code": "AR",
    "state_id": 4024
  },
  {
    "country_code": "IN",
    "country_id": 101,
    "id": 132499,
    "latitude": "27.01667000",
    "longitude": "95.56667000",
    "name": "Khonsa",
    "state_code": "AR",
    "state_id": 4024
  },
  {
    "country_code": "IN",
    "country_id": 101,
    "id": 132663,
    "latitude": "27.99983000",
    "longitude": "93.39240000",
    "name": "Kurung Kumey",
    "state_code": "AR",
    "state_id": 4024
  },
  {
    "country_code": "IN",
    "country_id": 101,
    "id": 132769,
    "latitude": "27.84012000",
    "longitude": "96.19521000",
    "name": "Lohit District",
    "state_code": "AR",
    "state_id": 4024
  },
  {
    "country_code": "IN",
    "country_id": 101,
    "id": 132779,
    "latitude": "28.37258000",
    "longitude": "95.88040000",
    "name": "Lower Dibang Valley",
    "state_code": "AR",
    "state_id": 4024
  },
  {
    "country_code": "IN",
    "country_id": 101,
    "id": 132780,
    "latitude": "27.62554000",
    "longitude": "93.93908000",
    "name": "Lower Subansiri",
    "state_code": "AR",
    "state_id": 4024
  },
  {
    "country_code": "IN",
    "country_id": 101,
    "id": 132934,
    "latitude": "27.28482000",
    "longitude": "95.66796000",
    "name": "Margherita",
    "state_code": "AR",
    "state_id": 4024
  },
  {
    "country_code": "IN",
    "country_id": 101,
    "id": 133121,
    "latitude": "27.10467000",
    "longitude": "93.69518000",
    "name": "Naharlagun",
    "state_code": "AR",
    "state_id": 4024
  },
  {
    "country_code": "IN",
    "country_id": 101,
    "id": 133551,
    "latitude": "28.06631000",
    "longitude": "95.32678000",
    "name": "Pasighat",
    "state_code": "AR",
    "state_id": 4024
  },
  {
    "country_code": "IN",
    "country_id": 101,
    "id": 134120,
    "latitude": "27.57417000",
    "longitude": "91.92437000",
    "name": "Tawang",
    "state_code": "AR",
    "state_id": 4024
  },
  {
    "country_code": "IN",
    "country_id": 101,
    "id": 134135,
    "latitude": "27.91256000",
    "longitude": "96.12882000",
    "name": "Tezu",
    "state_code": "AR",
    "state_id": 4024
  },
  {
    "country_code": "IN",
    "country_id": 101,
    "id": 134199,
    "latitude": "27.01917000",
    "longitude": "95.51788000",
    "name": "Tirap",
    "state_code": "AR",
    "state_id": 4024
  },
  {
    "country_code": "IN",
    "country_id": 101,
    "id": 134288,
    "latitude": "28.83355000",
    "longitude": "94.91806000",
    "name": "Upper Siang",
    "state_code": "AR",
    "state_id": 4024
  },
  {
    "country_code": "IN",
    "country_id": 101,
    "id": 134289,
    "latitude": "28.30000000",
    "longitude": "94.00000000",
    "name": "Upper Subansiri",
    "state_code": "AR",
    "state_id": 4024
  },
  {
    "country_code": "IN",
    "country_id": 101,
    "id": 134409,
    "latitude": "27.40000000",
    "longitude": "92.35000000",
    "name": "West Kameng",
    "state_code": "AR",
    "state_id": 4024
  },
  {
    "country_code": "IN",
    "country_id": 101,
    "id": 134411,
    "latitude": "28.40000000",
    "longitude": "94.55000000",
    "name": "West Siang",
    "state_code": "AR",
    "state_id": 4024
  },
  {
    "country_code": "IN",
    "country_id": 101,
    "id": 134444,
    "latitude": "27.59497000",
    "longitude": "93.83854000",
    "name": "Ziro",
    "state_code": "AR",
    "state_id": 4024
  },
  {
    "country_code": "IN",
    "country_id": 101,
    "id": 57585,
    "latitude": "26.32255000",
    "longitude": "90.68526000",
    "name": "Abhayapuri",
    "state_code": "AS",
    "state_id": 4027
  },
  {
    "country_code": "IN",
    "country_id": 101,
    "id": 57679,
    "latitude": "26.81482000",
    "longitude": "94.52614000",
    "name": "Amguri",
    "state_code": "AS",
    "state_id": 4027
  },
  {
    "country_code": "IN",
    "country_id": 101,
    "id": 57787,
    "latitude": "24.86852000",
    "longitude": "92.59606000",
    "name": "Badarpur",
    "state_code": "AS",
    "state_id": 4027
  },
  {
    "country_code": "IN",
    "country_id": 101,
    "id": 57820,
    "latitude": "26.69804000",
    "longitude": "91.15142000",
    "name": "Baksa",
    "state_code": "AS",
    "state_id": 4027
  },
  {
    "country_code": "IN",
    "country_id": 101,
    "id": 57883,
    "latitude": "26.28709000",
    "longitude": "93.88844000",
    "name": "Barpathar",
    "state_code": "AS",
    "state_id": 4027
  },
  {
    "country_code": "IN",
    "country_id": 101,
    "id": 57884,
    "latitude": "26.47104000",
    "longitude": "91.03080000",
    "name": "Barpeta",
    "state_code": "AS",
    "state_id": 4027
  },
  {
    "country_code": "IN",
    "country_id": 101,
    "id": 57885,
    "latitude": "26.50284000",
    "longitude": "90.96937000",
    "name": "Barpeta Road",
    "state_code": "AS",
    "state_id": 4027
  },
  {
    "country_code": "IN",
    "country_id": 101,
    "id": 58150,
    "latitude": "26.46742000",
    "longitude": "90.41951000",
    "name": "Basugaon",
    "state_code": "AS",
    "state_id": 4027
  },
  {
    "country_code": "IN",
    "country_id": 101,
    "id": 58028,
    "latitude": "27.01718000",
    "longitude": "93.91673000",
    "name": "Bihpuriagaon",
    "state_code": "AS",
    "state_id": 4027
  },
  {
    "country_code": "IN",
    "country_id": 101,
    "id": 58034,
    "latitude": "26.49588000",
    "longitude": "90.70298000",
    "name": "Bijni",
    "state_code": "AS",
    "state_id": 4027
  },
  {
    "country_code": "IN",
    "country_id": 101,
    "id": 58053,
    "latitude": "26.23285000",
    "longitude": "90.23410000",
    "name": "Bilasipara",
    "state_code": "AS",
    "state_id": 4027
  },
  {
    "country_code": "IN",
    "country_id": 101,
    "id": 58075,
    "latitude": "26.02131000",
    "longitude": "93.77945000",
    "name": "Bokajan",
    "state_code": "AS",
    "state_id": 4027
  },
  {
    "country_code": "IN",
    "country_id": 101,
    "id": 58077,
    "latitude": "26.64018000",
    "longitude": "93.60052000",
    "name": "Bokakhat",
    "state_code": "AS",
    "state_id": 4027
  },
  {
    "country_code": "IN",
    "country_id": 101,
    "id": 58081,
    "latitude": "26.46030000",
    "longitude": "90.64640000",
    "name": "Bongaigaon",
    "state_code": "AS",
    "state_id": 4027
  },
  {
    "country_code": "IN",
    "country_id": 101,
    "id": 131634,
    "latitude": "24.78213000",
    "longitude": "92.85771000",
    "name": "Cachar",
    "state_code": "AS",
    "state_id": 4027
  },
  {
    "country_code": "IN",
    "country_id": 101,
    "id": 131588,
    "latitude": "27.48253000",
    "longitude": "95.17451000",
    "name": "Chabua",
    "state_code": "AS",
    "state_id": 4027
  },
  {
    "country_code": "IN",
    "country_id": 101,
    "id": 131604,
    "latitude": "26.27266000",
    "longitude": "90.44556000",
    "name": "Chapar",
    "state_code": "AS",
    "state_id": 4027
  },
  {
    "country_code": "IN",
    "country_id": 101,
    "id": 131568,
    "latitude": "26.52527000",
    "longitude": "90.49066000",
    "name": "Chirang",
    "state_code": "AS",
    "state_id": 4027
  },
  {
    "country_code": "IN",
    "country_id": 101,
    "id": 131657,
    "latitude": "26.51195000",
    "longitude": "92.16843000",
    "name": "Darrang",
    "state_code": "AS",
    "state_id": 4027
  },
  {
    "country_code": "IN",
    "country_id": 101,
    "id": 131695,
    "latitude": "26.70000000",
    "longitude": "93.96667000",
    "name": "Dergaon",
    "state_code": "AS",
    "state_id": 4027
  },
  {
    "country_code": "IN",
    "country_id": 101,
    "id": 131732,
    "latitude": "26.70367000",
    "longitude": "92.47808000",
    "name": "Dhekiajuli",
    "state_code": "AS",
    "state_id": 4027
  },
  {
    "country_code": "IN",
    "country_id": 101,
    "id": 131733,
    "latitude": "27.60910000",
    "longitude": "94.79420000",
    "name": "Dhemaji",
    "state_code": "AS",
    "state_id": 4027
  },
  {
    "country_code": "IN",
    "country_id": 101,
    "id": 131737,
    "latitude": "26.46793000",
    "longitude": "92.47336000",
    "name": "Dhing",
    "state_code": "AS",
    "state_id": 4027
  },
  {
    "country_code": "IN",
    "country_id": 101,
    "id": 131744,
    "latitude": "26.06749000",
    "longitude": "90.02238000",
    "name": "Dhubri",
    "state_code": "AS",
    "state_id": 4027
  },
  {
    "country_code": "IN",
    "country_id": 101,
    "id": 131762,
    "latitude": "27.50000000",
    "longitude": "95.00000000",
    "name": "Dibrugarh",
    "state_code": "AS",
    "state_id": 4027
  },
  {
    "country_code": "IN",
    "country_id": 101,
    "id": 131766,
    "latitude": "27.39321000",
    "longitude": "95.61839000",
    "name": "Digboi",
    "state_code": "AS",
    "state_id": 4027
  },
  {
    "country_code": "IN",
    "country_id": 101,
    "id": 131770,
    "latitude": "25.50000000",
    "longitude": "93.00000000",
    "name": "Dima Hasao District",
    "state_code": "AS",
    "state_id": 4027
  },
  {
    "country_code": "IN",
    "country_id": 101,
    "id": 131776,
    "latitude": "25.84341000",
    "longitude": "93.43116000",
    "name": "Diphu",
    "state_code": "AS",
    "state_id": 4027
  },
  {
    "country_code": "IN",
    "country_id": 101,
    "id": 131778,
    "latitude": "26.13564000",
    "longitude": "91.80069000",
    "name": "Dispur",
    "state_code": "AS",
    "state_id": 4027
  },
  {
    "country_code": "IN",
    "country_id": 101,
    "id": 131795,
    "latitude": "27.37227000",
    "longitude": "95.30754000",
    "name": "Duliagaon",
    "state_code": "AS",
    "state_id": 4027
  },
  {
    "country_code": "IN",
    "country_id": 101,
    "id": 131796,
    "latitude": "27.56884000",
    "longitude": "95.55664000",
    "name": "Dum Duma",
    "state_code": "AS",
    "state_id": 4027
  },
  {
    "country_code": "IN",
    "country_id": 101,
    "id": 131928,
    "latitude": "26.08334000",
    "longitude": "89.96118000",
    "name": "Gauripur",
    "state_code": "AS",
    "state_id": 4027
  },
  {
    "country_code": "IN",
    "country_id": 101,
    "id": 132004,
    "latitude": "26.12791000",
    "longitude": "90.60974000",
    "name": "Goalpara",
    "state_code": "AS",
    "state_id": 4027
  },
  {
    "country_code": "IN",
    "country_id": 101,
    "id": 131967,
    "latitude": "26.88184000",
    "longitude": "93.61560000",
    "name": "Gohpur",
    "state_code": "AS",
    "state_id": 4027
  },
  {
    "country_code": "IN",
    "country_id": 101,
    "id": 131976,
    "latitude": "26.40920000",
    "longitude": "93.91193000",
    "name": "Golaghat",
    "state_code": "AS",
    "state_id": 4027
  },
  {
    "country_code": "IN",
    "country_id": 101,
    "id": 131977,
    "latitude": "26.10216000",
    "longitude": "89.82275000",
    "name": "Golakganj",
    "state_code": "AS",
    "state_id": 4027
  },
  {
    "country_code": "IN",
    "country_id": 101,
    "id": 131997,
    "latitude": "26.43946000",
    "longitude": "89.96307000",
    "name": "Goshaingaon",
    "state_code": "AS",
    "state_id": 4027
  },
  {
    "country_code": "IN",
    "country_id": 101,
    "id": 132039,
    "latitude": "26.18440000",
    "longitude": "91.74580000",
    "name": "Guwahati",
    "state_code": "AS",
    "state_id": 4027
  },
  {
    "country_code": "IN",
    "country_id": 101,
    "id": 132134,
    "latitude": "25.16478000",
    "longitude": "93.01744000",
    "name": "Haflong",
    "state_code": "AS",
    "state_id": 4027
  },
  {
    "country_code": "IN",
    "country_id": 101,
    "id": 132055,
    "latitude": "24.50170000",
    "longitude": "92.60069000",
    "name": "Hailakandi",
    "state_code": "AS",
    "state_id": 4027
  },
  {
    "country_code": "IN",
    "country_id": 101,
    "id": 132137,
    "latitude": "26.24520000",
    "longitude": "91.52525000",
    "name": "Hajo",
    "state_code": "AS",
    "state_id": 4027
  },
  {
    "country_code": "IN",
    "country_id": 101,
    "id": 132110,
    "latitude": "26.00281000",
    "longitude": "92.85605000",
    "name": "Hojai",
    "state_code": "AS",
    "state_id": 4027
  },
  {
    "country_code": "IN",
    "country_id": 101,
    "id": 132126,
    "latitude": "26.42237000",
    "longitude": "90.98004000",
    "name": "Howli",
    "state_code": "AS",
    "state_id": 4027
  },
  {
    "country_code": "IN",
    "country_id": 101,
    "id": 132291,
    "latitude": "26.22646000",
    "longitude": "90.57247000",
    "name": "Jogighopa",
    "state_code": "AS",
    "state_id": 4027
  },
  {
    "country_code": "IN",
    "country_id": 101,
    "id": 132294,
    "latitude": "26.80000000",
    "longitude": "94.26000000",
    "name": "Jorhat",
    "state_code": "AS",
    "state_id": 4027
  },
  {
    "country_code": "IN",
    "country_id": 101,
    "id": 132693,
    "latitude": "26.22322000",
    "longitude": "91.65344000",
    "name": "Kamrup",
    "state_code": "AS",
    "state_id": 4027
  },
  {
    "country_code": "IN",
    "country_id": 101,
    "id": 132366,
    "latitude": "26.05375000",
    "longitude": "92.00763000",
    "name": "Kamrup Metropolitan",
    "state_code": "AS",
    "state_id": 4027
  },
  {
    "country_code": "IN",
    "country_id": 101,
    "id": 132718,
    "latitude": "26.00000000",
    "longitude": "93.50000000",
    "name": "Karbi Anglong",
    "state_code": "AS",
    "state_id": 4027
  },
  {
    "country_code": "IN",
    "country_id": 101,
    "id": 132402,
    "latitude": "24.60000000",
    "longitude": "92.40000000",
    "name": "Karimganj",
    "state_code": "AS",
    "state_id": 4027
  },
  {
    "country_code": "IN",
    "country_id": 101,
    "id": 132518,
    "latitude": "26.51839000",
    "longitude": "92.14722000",
    "name": "Kharupatia",
    "state_code": "AS",
    "state_id": 4027
  },
  {
    "country_code": "IN",
    "country_id": 101,
    "id": 132551,
    "latitude": "26.60000000",
    "longitude": "90.20000000",
    "name": "Kokrajhar",
    "state_code": "AS",
    "state_id": 4027
  },
  {
    "country_code": "IN",
    "country_id": 101,
    "id": 132742,
    "latitude": "27.35000000",
    "longitude": "94.25000000",
    "name": "Lakhimpur",
    "state_code": "AS",
    "state_id": 4027
  },
  {
    "country_code": "IN",
    "country_id": 101,
    "id": 132743,
    "latitude": "24.79281000",
    "longitude": "93.00910000",
    "name": "Lakhipur",
    "state_code": "AS",
    "state_id": 4027
  },
  {
    "country_code": "IN",
    "country_id": 101,
    "id": 132793,
    "latitude": "24.55418000",
    "longitude": "92.61592000",
    "name": "Lala",
    "state_code": "AS",
    "state_id": 4027
  },
  {
    "country_code": "IN",
    "country_id": 101,
    "id": 132786,
    "latitude": "25.74903000",
    "longitude": "93.16998000",
    "name": "Lumding Railway Colony",
    "state_code": "AS",
    "state_id": 4027
  },
  {
    "country_code": "IN",
    "country_id": 101,
    "id": 132842,
    "latitude": "25.18305000",
    "longitude": "93.11342000",
    "name": "Mahur",
    "state_code": "AS",
    "state_id": 4027
  },
  {
    "country_code": "IN",
    "country_id": 101,
    "id": 132853,
    "latitude": "25.30125000",
    "longitude": "93.13811000",
    "name": "Maibong",
    "state_code": "AS",
    "state_id": 4027
  },
  {
    "country_code": "IN",
    "country_id": 101,
    "id": 133064,
    "latitude": "27.48652000",
    "longitude": "95.43646000",
    "name": "Makum",
    "state_code": "AS",
    "state_id": 4027
  },
  {
    "country_code": "IN",
    "country_id": 101,
    "id": 132904,
    "latitude": "26.44212000",
    "longitude": "92.03047000",
    "name": "Mangaldai",
    "state_code": "AS",
    "state_id": 4027
  },
  {
    "country_code": "IN",
    "country_id": 101,
    "id": 132937,
    "latitude": "26.65725000",
    "longitude": "94.31529000",
    "name": "Mariani",
    "state_code": "AS",
    "state_id": 4027
  },
  {
    "country_code": "IN",
    "country_id": 101,
    "id": 133002,
    "latitude": "27.18735000",
    "longitude": "94.91557000",
    "name": "Moranha",
    "state_code": "AS",
    "state_id": 4027
  },
  {
    "country_code": "IN",
    "country_id": 101,
    "id": 132995,
    "latitude": "26.25213000",
    "longitude": "92.34238000",
    "name": "Morigaon",
    "state_code": "AS",
    "state_id": 4027
  },
  {
    "country_code": "IN",
    "country_id": 101,
    "id": 133110,
    "latitude": "26.35037000",
    "longitude": "92.69225000",
    "name": "Nagaon",
    "state_code": "AS",
    "state_id": 4027
  },
  {
    "country_code": "IN",
    "country_id": 101,
    "id": 133122,
    "latitude": "27.28912000",
    "longitude": "95.34180000",
    "name": "Nahorkatiya",
    "state_code": "AS",
    "state_id": 4027
  },
  {
    "country_code": "IN",
    "country_id": 101,
    "id": 133130,
    "latitude": "26.50000000",
    "longitude": "91.40000000",
    "name": "Nalbari",
    "state_code": "AS",
    "state_id": 4027
  },
  {
    "country_code": "IN",
    "country_id": 101,
    "id": 133266,
    "latitude": "27.19395000",
    "longitude": "95.31929000",
    "name": "Namrup",
    "state_code": "AS",
    "state_id": 4027
  },
  {
    "country_code": "IN",
    "country_id": 101,
    "id": 133284,
    "latitude": "26.91649000",
    "longitude": "94.73611000",
    "name": "Nazira",
    "state_code": "AS",
    "state_id": 4027
  },
  {
    "country_code": "IN",
    "country_id": 101,
    "id": 133239,
    "latitude": "26.19749000",
    "longitude": "91.72020000",
    "name": "North Guwahati",
    "state_code": "AS",
    "state_id": 4027
  },
  {
    "country_code": "IN",
    "country_id": 101,
    "id": 133240,
    "latitude": "27.23517000",
    "longitude": "94.10357000",
    "name": "North Lakhimpur",
    "state_code": "AS",
    "state_id": 4027
  },
  {
    "country_code": "IN",
    "country_id": 101,
    "id": 133248,
    "latitude": "26.62249000",
    "longitude": "93.72225000",
    "name": "Numaligarh",
    "state_code": "AS",
    "state_id": 4027
  },
  {
    "country_code": "IN",
    "country_id": 101,
    "id": 133341,
    "latitude": "26.12388000",
    "longitude": "91.53974000",
    "name": "Palasbari",
    "state_code": "AS",
    "state_id": 4027
  },
  {
    "country_code": "IN",
    "country_id": 101,
    "id": 133584,
    "latitude": "26.23333000",
    "longitude": "92.51667000",
    "name": "Raha",
    "state_code": "AS",
    "state_id": 4027
  },
  {
    "country_code": "IN",
    "country_id": 101,
    "id": 133610,
    "latitude": "26.83772000",
    "longitude": "92.66876000",
    "name": "Rangapara",
    "state_code": "AS",
    "state_id": 4027
  },
  {
    "country_code": "IN",
    "country_id": 101,
    "id": 133608,
    "latitude": "26.44931000",
    "longitude": "91.61356000",
    "name": "Rangia",
    "state_code": "AS",
    "state_id": 4027
  },
  {
    "country_code": "IN",
    "country_id": 101,
    "id": 133798,
    "latitude": "26.33732000",
    "longitude": "90.12360000",
    "name": "Sapatgram",
    "state_code": "AS",
    "state_id": 4027
  },
  {
    "country_code": "IN",
    "country_id": 101,
    "id": 133809,
    "latitude": "26.20600000",
    "longitude": "96.81000000",
    "name": "Sarupathar",
    "state_code": "AS",
    "state_id": 4027
  },
  {
    "country_code": "IN",
    "country_id": 101,
    "id": 133916,
    "latitude": "26.98427000",
    "longitude": "94.63784000",
    "name": "Sibsagar",
    "state_code": "AS",
    "state_id": 4027
  },
  {
    "country_code": "IN",
    "country_id": 101,
    "id": 133934,
    "latitude": "27.59441000",
    "longitude": "94.72402000",
    "name": "Silapathar",
    "state_code": "AS",
    "state_id": 4027
  },
  {
    "country_code": "IN",
    "country_id": 101,
    "id": 133935,
    "latitude": "24.82733000",
    "longitude": "92.79787000",
    "name": "Silchar",
    "state_code": "AS",
    "state_id": 4027
  },
  {
    "country_code": "IN",
    "country_id": 101,
    "id": 133979,
    "latitude": "26.16806000",
    "longitude": "91.57111000",
    "name": "Soalkuchi",
    "state_code": "AS",
    "state_id": 4027
  },
  {
    "country_code": "IN",
    "country_id": 101,
    "id": 133998,
    "latitude": "27.02462000",
    "longitude": "95.01629000",
    "name": "Sonari",
    "state_code": "AS",
    "state_id": 4027
  },
  {
    "country_code": "IN",
    "country_id": 101,
    "id": 133996,
    "latitude": "26.76748000",
    "longitude": "92.96425000",
    "name": "Sonitpur",
    "state_code": "AS",
    "state_id": 4027
  },
  {
    "country_code": "IN",
    "country_id": 101,
    "id": 134003,
    "latitude": "26.48612000",
    "longitude": "90.88590000",
    "name": "Sorbhog",
    "state_code": "AS",
    "state_id": 4027
  },
  {
    "country_code": "IN",
    "country_id": 101,
    "id": 134134,
    "latitude": "26.63333000",
    "longitude": "92.80000000",
    "name": "Tezpur",
    "state_code": "AS",
    "state_id": 4027
  },
  {
    "country_code": "IN",
    "country_id": 101,
    "id": 134175,
    "latitude": "27.60000000",
    "longitude": "95.60000000",
    "name": "Tinsukia",
    "state_code": "AS",
    "state_id": 4027
  },
  {
    "country_code": "IN",
    "country_id": 101,
    "id": 134203,
    "latitude": "26.60140000",
    "longitude": "94.20386000",
    "name": "Titabar",
    "state_code": "AS",
    "state_id": 4027
  },
  {
    "country_code": "IN",
    "country_id": 101,
    "id": 134252,
    "latitude": "26.75367000",
    "longitude": "92.10215000",
    "name": "Udalguri",
    "state_code": "AS",
    "state_id": 4027
  },
  {
    "country_code": "IN",
    "country_id": 101,
    "id": 57661,
    "latitude": "25.03967000",
    "longitude": "86.90247000",
    "name": "Amarpur",
    "state_code": "BR",
    "state_id": 4037
  },
  {
    "country_code": "IN",
    "country_id": 101,
    "id": 57730,
    "latitude": "26.20000000",
    "longitude": "87.40000000",
    "name": "Araria",
    "state_code": "BR",
    "state_id": 4037
  },
  {
    "country_code": "IN",
    "country_id": 101,
    "id": 57739,
    "latitude": "25.55629000",
    "longitude": "84.66335000",
    "name": "Arrah",
    "state_code": "BR",
    "state_id": 4037
  },
  {
    "country_code": "IN",
    "country_id": 101,
    "id": 57747,
    "latitude": "25.16158000",
    "longitude": "84.69040000",
    "name": "Arwal",
    "state_code": "BR",
    "state_id": 4037
  },
  {
    "country_code": "IN",
    "country_id": 101,
    "id": 57749,
    "latitude": "25.15046000",
    "longitude": "86.68639000",
    "name": "Asarganj",
    "state_code": "BR",
    "state_id": 4037
  },
  {
    "country_code": "IN",
    "country_id": 101,
    "id": 57766,
    "latitude": "24.75204000",
    "longitude": "84.37420000",
    "name": "Aurangabad",
    "state_code": "BR",
    "state_id": 4037
  },
  {
    "country_code": "IN",
    "country_id": 101,
    "id": 57796,
    "latitude": "27.09918000",
    "longitude": "84.09003000",
    "name": "Bagaha",
    "state_code": "BR",
    "state_id": 4037
  },
  {
    "country_code": "IN",
    "country_id": 101,
    "id": 57809,
    "latitude": "26.26172000",
    "longitude": "87.82443000",
    "name": "Bahadurganj",
    "state_code": "BR",
    "state_id": 4037
  },
  {
    "country_code": "IN",
    "country_id": 101,
    "id": 57815,
    "latitude": "26.74063000",
    "longitude": "85.27323000",
    "name": "Bairagnia",
    "state_code": "BR",
    "state_id": 4037
  },
  {
    "country_code": "IN",
    "country_id": 101,
    "id": 57816,
    "latitude": "25.86302000",
    "longitude": "87.74487000",
    "name": "Baisi",
    "state_code": "BR",
    "state_id": 4037
  },
  {
    "country_code": "IN",
    "country_id": 101,
    "id": 57818,
    "latitude": "25.46179000",
    "longitude": "85.53179000",
    "name": "Bakhtiyarpur",
    "state_code": "BR",
    "state_id": 4037
  },
  {
    "country_code": "IN",
    "country_id": 101,
    "id": 57850,
    "latitude": "25.86728000",
    "longitude": "86.51152000",
    "name": "Bangaon",
    "state_code": "BR",
    "state_id": 4037
  },
  {
    "country_code": "IN",
    "country_id": 101,
    "id": 57854,
    "latitude": "24.89214000",
    "longitude": "86.98425000",
    "name": "Banka",
    "state_code": "BR",
    "state_id": 4037
  },
  {
    "country_code": "IN",
    "country_id": 101,
    "id": 57855,
    "latitude": "25.88857000",
    "longitude": "87.19421000",
    "name": "Banmankhi",
    "state_code": "BR",
    "state_id": 4037
  },
  {
    "country_code": "IN",
    "country_id": 101,
    "id": 57860,
    "latitude": "25.21855000",
    "longitude": "85.73320000",
    "name": "Bar Bigha",
    "state_code": "BR",
    "state_id": 4037
  },
  {
    "country_code": "IN",
    "country_id": 101,
    "id": 57864,
    "latitude": "26.38109000",
    "longitude": "84.58648000",
    "name": "Barauli",
    "state_code": "BR",
    "state_id": 4037
  },
  {
    "country_code": "IN",
    "country_id": 101,
    "id": 58141,
    "latitude": "25.48339000",
    "longitude": "85.70928000",
    "name": "Barh",
    "state_code": "BR",
    "state_id": 4037
  },
  {
    "country_code": "IN",
    "country_id": 101,
    "id": 57873,
    "latitude": "25.28814000",
    "longitude": "86.02055000",
    "name": "Barhiya",
    "state_code": "BR",
    "state_id": 4037
  },
  {
    "country_code": "IN",
    "country_id": 101,
    "id": 57875,
    "latitude": "25.28791000",
    "longitude": "86.57643000",
    "name": "Bariarpur",
    "state_code": "BR",
    "state_id": 4037
  },
  {
    "country_code": "IN",
    "country_id": 101,
    "id": 58145,
    "latitude": "25.47509000",
    "longitude": "85.96813000",
    "name": "Baruni",
    "state_code": "BR",
    "state_id": 4037
  },
  {
    "country_code": "IN",
    "country_id": 101,
    "id": 57915,
    "latitude": "25.41853000",
    "longitude": "86.13389000",
    "name": "Begusarai",
    "state_code": "BR",
    "state_id": 4037
  },
  {
    "country_code": "IN",
    "country_id": 101,
    "id": 57927,
    "latitude": "26.44365000",
    "longitude": "85.40076000",
    "name": "Belsand",
    "state_code": "BR",
    "state_id": 4037
  },
  {
    "country_code": "IN",
    "country_id": 101,
    "id": 57941,
    "latitude": "26.80229000",
    "longitude": "84.50311000",
    "name": "Bettiah",
    "state_code": "BR",
    "state_id": 4037
  },
  {
    "country_code": "IN",
    "country_id": 101,
    "id": 57947,
    "latitude": "25.04049000",
    "longitude": "83.60749000",
    "name": "Bhabhua",
    "state_code": "BR",
    "state_id": 4037
  },
  {
    "country_code": "IN",
    "country_id": 101,
    "id": 58009,
    "latitude": "25.29023000",
    "longitude": "87.06665000",
    "name": "Bhagalpur",
    "state_code": "BR",
    "state_id": 4037
  },
  {
    "country_code": "IN",
    "country_id": 101,
    "id": 57957,
    "latitude": "26.26950000",
    "longitude": "86.06346000",
    "name": "Bhagirathpur",
    "state_code": "BR",
    "state_id": 4037
  },
  {
    "country_code": "IN",
    "country_id": 101,
    "id": 57974,
    "latitude": "26.45352000",
    "longitude": "87.02744000",
    "name": "Bhawanipur",
    "state_code": "BR",
    "state_id": 4037
  },
  {
    "country_code": "IN",
    "country_id": 101,
    "id": 57991,
    "latitude": "25.30886000",
    "longitude": "84.44504000",
    "name": "Bhojpur",
    "state_code": "BR",
    "state_id": 4037
  },
  {
    "country_code": "IN",
    "country_id": 101,
    "id": 58029,
    "latitude": "25.20084000",
    "longitude": "85.52389000",
    "name": "Bihar Sharif",
    "state_code": "BR",
    "state_id": 4037
  },
  {
    "country_code": "IN",
    "country_id": 101,
    "id": 58030,
    "latitude": "25.73415000",
    "longitude": "86.98837000",
    "name": "Bihariganj",
    "state_code": "BR",
    "state_id": 4037
  },
  {
    "country_code": "IN",
    "country_id": 101,
    "id": 58039,
    "latitude": "25.21073000",
    "longitude": "84.25508000",
    "name": "Bikramganj",
    "state_code": "BR",
    "state_id": 4037
  },
  {
    "country_code": "IN",
    "country_id": 101,
    "id": 58160,
    "latitude": "26.50823000",
    "longitude": "87.01194000",
    "name": "Birpur",
    "state_code": "BR",
    "state_id": 4037
  },
  {
    "country_code": "IN",
    "country_id": 101,
    "id": 58089,
    "latitude": "24.69808000",
    "longitude": "84.98690000",
    "name": "Buddh Gaya",
    "state_code": "BR",
    "state_id": 4037
  },
  {
    "country_code": "IN",
    "country_id": 101,
    "id": 58100,
    "latitude": "25.50000000",
    "longitude": "84.10000000",
    "name": "Buxar",
    "state_code": "BR",
    "state_id": 4037
  },
  {
    "country_code": "IN",
    "country_id": 101,
    "id": 131590,
    "latitude": "26.41598000",
    "longitude": "85.04665000",
    "name": "Chakia",
    "state_code": "BR",
    "state_id": 4037
  },
  {
    "country_code": "IN",
    "country_id": 101,
    "id": 131605,
    "latitude": "25.78031000",
    "longitude": "84.74709000",
    "name": "Chapra",
    "state_code": "BR",
    "state_id": 4037
  },
  {
    "country_code": "IN",
    "country_id": 101,
    "id": 131541,
    "latitude": "26.21965000",
    "longitude": "87.00479000",
    "name": "Chhatapur",
    "state_code": "BR",
    "state_id": 4037
  },
  {
    "country_code": "IN",
    "country_id": 101,
    "id": 131620,
    "latitude": "25.26328000",
    "longitude": "87.23264000",
    "name": "Colgong",
    "state_code": "BR",
    "state_id": 4037
  },
  {
    "country_code": "IN",
    "country_id": 101,
    "id": 131647,
    "latitude": "25.66795000",
    "longitude": "85.83636000",
    "name": "Dalsingh Sarai",
    "state_code": "BR",
    "state_id": 4037
  },
  {
    "country_code": "IN",
    "country_id": 101,
    "id": 131654,
    "latitude": "26.00000000",
    "longitude": "86.00000000",
    "name": "Darbhanga",
    "state_code": "BR",
    "state_id": 4037
  },
  {
    "country_code": "IN",
    "country_id": 101,
    "id": 131664,
    "latitude": "25.03473000",
    "longitude": "84.40095000",
    "name": "Daudnagar",
    "state_code": "BR",
    "state_id": 4037
  },
  {
    "country_code": "IN",
    "country_id": 101,
    "id": 131677,
    "latitude": "24.90247000",
    "longitude": "84.18217000",
    "name": "Dehri",
    "state_code": "BR",
    "state_id": 4037
  },
  {
    "country_code": "IN",
    "country_id": 101,
    "id": 131748,
    "latitude": "26.67479000",
    "longitude": "85.16698000",
    "name": "Dhaka",
    "state_code": "BR",
    "state_id": 4037
  },
  {
    "country_code": "IN",
    "country_id": 101,
    "id": 131767,
    "latitude": "25.74434000",
    "longitude": "85.01003000",
    "name": "Dighwara",
    "state_code": "BR",
    "state_id": 4037
  },
  {
    "country_code": "IN",
    "country_id": 101,
    "id": 131773,
    "latitude": "25.63705000",
    "longitude": "85.04794000",
    "name": "Dinapore",
    "state_code": "BR",
    "state_id": 4037
  },
  {
    "country_code": "IN",
    "country_id": 101,
    "id": 131798,
    "latitude": "26.56708000",
    "longitude": "85.52040000",
    "name": "Dumra",
    "state_code": "BR",
    "state_id": 4037
  },
  {
    "country_code": "IN",
    "country_id": 101,
    "id": 131799,
    "latitude": "25.55265000",
    "longitude": "84.15149000",
    "name": "Dumraon",
    "state_code": "BR",
    "state_id": 4037
  },
  {
    "country_code": "IN",
    "country_id": 101,
    "id": 131873,
    "latitude": "25.50958000",
    "longitude": "85.30504000",
    "name": "Fatwa",
    "state_code": "BR",
    "state_id": 4037
  },
  {
    "country_code": "IN",
    "country_id": 101,
    "id": 131878,
    "latitude": "26.30253000",
    "longitude": "87.26556000",
    "name": "Forbesganj",
    "state_code": "BR",
    "state_id": 4037
  },
  {
    "country_code": "IN",
    "country_id": 101,
    "id": 131932,
    "latitude": "24.79686000",
    "longitude": "85.00385000",
    "name": "Gaya",
    "state_code": "BR",
    "state_id": 4037
  },
  {
    "country_code": "IN",
    "country_id": 101,
    "id": 131943,
    "latitude": "25.21738000",
    "longitude": "87.15710000",
    "name": "Ghoga",
    "state_code": "BR",
    "state_id": 4037
  },
  {
    "country_code": "IN",
    "country_id": 101,
    "id": 131987,
    "latitude": "26.50000000",
    "longitude": "84.33333000",
    "name": "Gopalganj",
    "state_code": "BR",
    "state_id": 4037
  },
  {
    "country_code": "IN",
    "country_id": 101,
    "id": 132138,
    "latitude": "25.68544000",
    "longitude": "85.20981000",
    "name": "Hajipur",
    "state_code": "BR",
    "state_id": 4037
  },
  {
    "country_code": "IN",
    "country_id": 101,
    "id": 132095,
    "latitude": "25.31642000",
    "longitude": "85.28234000",
    "name": "Hilsa",
    "state_code": "BR",
    "state_id": 4037
  },
  {
    "country_code": "IN",
    "country_id": 101,
    "id": 132107,
    "latitude": "24.83360000",
    "longitude": "85.41729000",
    "name": "Hisua",
    "state_code": "BR",
    "state_id": 4037
  },
  {
    "country_code": "IN",
    "country_id": 101,
    "id": 132174,
    "latitude": "25.14075000",
    "longitude": "85.20587000",
    "name": "Islampur",
    "state_code": "BR",
    "state_id": 4037
  },
  {
    "country_code": "IN",
    "country_id": 101,
    "id": 132188,
    "latitude": "25.46811000",
    "longitude": "84.41939000",
    "name": "Jagdispur",
    "state_code": "BR",
    "state_id": 4037
  },
  {
    "country_code": "IN",
    "country_id": 101,
    "id": 132198,
    "latitude": "25.21368000",
    "longitude": "84.98710000",
    "name": "Jahanabad",
    "state_code": "BR",
    "state_id": 4037
  },
  {
    "country_code": "IN",
    "country_id": 101,
    "id": 132234,
    "latitude": "25.31258000",
    "longitude": "86.48888000",
    "name": "Jamalpur",
    "state_code": "BR",
    "state_id": 4037
  },
  {
    "country_code": "IN",
    "country_id": 101,
    "id": 132233,
    "latitude": "24.92082000",
    "longitude": "86.17538000",
    "name": "Jamui",
    "state_code": "BR",
    "state_id": 4037
  },
  {
    "country_code": "IN",
    "country_id": 101,
    "id": 132258,
    "latitude": "26.59048000",
    "longitude": "86.13791000",
    "name": "Jaynagar",
    "state_code": "BR",
    "state_id": 4037
  },
  {
    "country_code": "IN",
    "country_id": 101,
    "id": 132259,
    "latitude": "25.20701000",
    "longitude": "84.99573000",
    "name": "Jehanabad",
    "state_code": "BR",
    "state_id": 4037
  },
  {
    "country_code": "IN",
    "country_id": 101,
    "id": 132274,
    "latitude": "24.77107000",
    "longitude": "86.37888000",
    "name": "Jha-Jha",
    "state_code": "BR",
    "state_id": 4037
  },
  {
    "country_code": "IN",
    "country_id": 101,
    "id": 132267,
    "latitude": "26.26467000",
    "longitude": "86.27993000",
    "name": "Jhanjharpur",
    "state_code": "BR",
    "state_id": 4037
  },
  {
    "country_code": "IN",
    "country_id": 101,
    "id": 132288,
    "latitude": "26.39905000",
    "longitude": "87.26525000",
    "name": "Jogbani",
    "state_code": "BR",
    "state_id": 4037
  },
  {
    "country_code": "IN",
    "country_id": 101,
    "id": 132337,
    "latitude": "25.05077000",
    "longitude": "83.58261000",
    "name": "Kaimur District",
    "state_code": "BR",
    "state_id": 4037
  },
  {
    "country_code": "IN",
    "country_id": 101,
    "id": 132417,
    "latitude": "25.85643000",
    "longitude": "87.53836000",
    "name": "Kasba",
    "state_code": "BR",
    "state_id": 4037
  },
  {
    "country_code": "IN",
    "country_id": 101,
    "id": 132423,
    "latitude": "25.50000000",
    "longitude": "87.60000000",
    "name": "Katihar",
    "state_code": "BR",
    "state_id": 4037
  },
  {
    "country_code": "IN",
    "country_id": 101,
    "id": 132451,
    "latitude": "25.50220000",
    "longitude": "86.46708000",
    "name": "Khagaria",
    "state_code": "BR",
    "state_id": 4037
  },
  {
    "country_code": "IN",
    "country_id": 101,
    "id": 132452,
    "latitude": "25.57898000",
    "longitude": "85.04564000",
    "name": "Khagaul",
    "state_code": "BR",
    "state_id": 4037
  },
  {
    "country_code": "IN",
    "country_id": 101,
    "id": 132470,
    "latitude": "25.12446000",
    "longitude": "86.55578000",
    "name": "Kharagpur",
    "state_code": "BR",
    "state_id": 4037
  },
  {
    "country_code": "IN",
    "country_id": 101,
    "id": 132510,
    "latitude": "25.48174000",
    "longitude": "85.38492000",
    "name": "Khusropur",
    "state_code": "BR",
    "state_id": 4037
  },
  {
    "country_code": "IN",
    "country_id": 101,
    "id": 132529,
    "latitude": "26.30000000",
    "longitude": "88.00000000",
    "name": "Kishanganj",
    "state_code": "BR",
    "state_id": 4037
  },
  {
    "country_code": "IN",
    "country_id": 101,
    "id": 132620,
    "latitude": "25.32643000",
    "longitude": "84.25983000",
    "name": "Koath",
    "state_code": "BR",
    "state_id": 4037
  },
  {
    "country_code": "IN",
    "country_id": 101,
    "id": 132548,
    "latitude": "25.58055000",
    "longitude": "84.79751000",
    "name": "Koelwar",
    "state_code": "BR",
    "state_id": 4037
  },
  {
    "country_code": "IN",
    "country_id": 101,
    "id": 132744,
    "latitude": "25.20000000",
    "longitude": "86.20000000",
    "name": "Lakhisarai",
    "state_code": "BR",
    "state_id": 4037
  },
  {
    "country_code": "IN",
    "country_id": 101,
    "id": 132795,
    "latitude": "25.86894000",
    "longitude": "85.17394000",
    "name": "Lalganj",
    "state_code": "BR",
    "state_id": 4037
  },
  {
    "country_code": "IN",
    "country_id": 101,
    "id": 132781,
    "latitude": "25.17650000",
    "longitude": "86.09470000",
    "name": "Luckeesarai",
    "state_code": "BR",
    "state_id": 4037
  },
  {
    "country_code": "IN",
    "country_id": 101,
    "id": 132812,
    "latitude": "25.80000000",
    "longitude": "87.00000000",
    "name": "Madhepura",
    "state_code": "BR",
    "state_id": 4037
  },
  {
    "country_code": "IN",
    "country_id": 101,
    "id": 132813,
    "latitude": "25.92127000",
    "longitude": "86.79271000",
    "name": "Madhipura",
    "state_code": "BR",
    "state_id": 4037
  },
  {
    "country_code": "IN",
    "country_id": 101,
    "id": 132815,
    "latitude": "26.35367000",
    "longitude": "86.07169000",
    "name": "Madhubani",
    "state_code": "BR",
    "state_id": 4037
  },
  {
    "country_code": "IN",
    "country_id": 101,
    "id": 132849,
    "latitude": "26.11017000",
    "longitude": "84.50365000",
    "name": "Maharajgani",
    "state_code": "BR",
    "state_id": 4037
  },
  {
    "country_code": "IN",
    "country_id": 101,
    "id": 132859,
    "latitude": "26.23218000",
    "longitude": "84.16349000",
    "name": "Mairwa",
    "state_code": "BR",
    "state_id": 4037
  },
  {
    "country_code": "IN",
    "country_id": 101,
    "id": 132901,
    "latitude": "25.64602000",
    "longitude": "84.87291000",
    "name": "Maner",
    "state_code": "BR",
    "state_id": 4037
  },
  {
    "country_code": "IN",
    "country_id": 101,
    "id": 132911,
    "latitude": "25.33891000",
    "longitude": "87.61998000",
    "name": "Manihari",
    "state_code": "BR",
    "state_id": 4037
  },
  {
    "country_code": "IN",
    "country_id": 101,
    "id": 132935,
    "latitude": "25.97349000",
    "longitude": "84.86796000",
    "name": "Marhaura",
    "state_code": "BR",
    "state_id": 4037
  },
  {
    "country_code": "IN",
    "country_id": 101,
    "id": 132938,
    "latitude": "25.35417000",
    "longitude": "85.03195000",
    "name": "Masaurhi Buzurg",
    "state_code": "BR",
    "state_id": 4037
  },
  {
    "country_code": "IN",
    "country_id": 101,
    "id": 132984,
    "latitude": "25.57374000",
    "longitude": "85.66944000",
    "name": "Mohiuddinnagar",
    "state_code": "BR",
    "state_id": 4037
  },
  {
    "country_code": "IN",
    "country_id": 101,
    "id": 132988,
    "latitude": "25.39662000",
    "longitude": "85.92190000",
    "name": "Mokameh",
    "state_code": "BR",
    "state_id": 4037
  },
  {
    "country_code": "IN",
    "country_id": 101,
    "id": 132991,
    "latitude": "25.37459000",
    "longitude": "86.47455000",
    "name": "Monghyr",
    "state_code": "BR",
    "state_id": 4037
  },
  {
    "country_code": "IN",
    "country_id": 101,
    "id": 133005,
    "latitude": "26.64862000",
    "longitude": "84.91656000",
    "name": "Mothihari",
    "state_code": "BR",
    "state_id": 4037
  },
  {
    "country_code": "IN",
    "country_id": 101,
    "id": 133032,
    "latitude": "25.36099000",
    "longitude": "86.46515000",
    "name": "Munger",
    "state_code": "BR",
    "state_id": 4037
  },
  {
    "country_code": "IN",
    "country_id": 101,
    "id": 133037,
    "latitude": "25.89690000",
    "longitude": "86.99577000",
    "name": "Murliganj",
    "state_code": "BR",
    "state_id": 4037
  },
  {
    "country_code": "IN",
    "country_id": 101,
    "id": 133052,
    "latitude": "26.16667000",
    "longitude": "85.41667000",
    "name": "Muzaffarpur",
    "state_code": "BR",
    "state_id": 4037
  },
  {
    "country_code": "IN",
    "country_id": 101,
    "id": 133105,
    "latitude": "24.60681000",
    "longitude": "84.12624000",
    "name": "Nabinagar",
    "state_code": "BR",
    "state_id": 4037
  },
  {
    "country_code": "IN",
    "country_id": 101,
    "id": 133262,
    "latitude": "25.25000000",
    "longitude": "85.58333000",
    "name": "Nalanda",
    "state_code": "BR",
    "state_id": 4037
  },
  {
    "country_code": "IN",
    "country_id": 101,
    "id": 133279,
    "latitude": "25.05140000",
    "longitude": "84.32839000",
    "name": "Nasriganj",
    "state_code": "BR",
    "state_id": 4037
  },
  {
    "country_code": "IN",
    "country_id": 101,
    "id": 133182,
    "latitude": "25.38807000",
    "longitude": "87.09906000",
    "name": "Naugachhia",
    "state_code": "BR",
    "state_id": 4037
  },
  {
    "country_code": "IN",
    "country_id": 101,
    "id": 133192,
    "latitude": "24.75000000",
    "longitude": "85.50000000",
    "name": "Nawada",
    "state_code": "BR",
    "state_id": 4037
  },
  {
    "country_code": "IN",
    "country_id": 101,
    "id": 133222,
    "latitude": "26.31397000",
    "longitude": "86.58537000",
    "name": "Nirmali",
    "state_code": "BR",
    "state_id": 4037
  },
  {
    "country_code": "IN",
    "country_id": 101,
    "id": 133373,
    "latitude": "27.00000000",
    "longitude": "84.50000000",
    "name": "Pashchim Champaran",
    "state_code": "BR",
    "state_id": 4037
  },
  {
    "country_code": "IN",
    "country_id": 101,
    "id": 133386,
    "latitude": "25.41667000",
    "longitude": "85.16667000",
    "name": "Patna",
    "state_code": "BR",
    "state_id": 4037
  },
  {
    "country_code": "IN",
    "country_id": 101,
    "id": 133459,
    "latitude": "25.33218000",
    "longitude": "84.40454000",
    "name": "Piro",
    "state_code": "BR",
    "state_id": 4037
  },
  {
    "country_code": "IN",
    "country_id": 101,
    "id": 133509,
    "latitude": "26.47079000",
    "longitude": "85.70311000",
    "name": "Pupri",
    "state_code": "BR",
    "state_id": 4037
  },
  {
    "country_code": "IN",
    "country_id": 101,
    "id": 133570,
    "latitude": "26.58333000",
    "longitude": "84.83333000",
    "name": "Purba Champaran",
    "state_code": "BR",
    "state_id": 4037
  },
  {
    "country_code": "IN",
    "country_id": 101,
    "id": 133512,
    "latitude": "25.81614000",
    "longitude": "87.40708000",
    "name": "Purnia",
    "state_code": "BR",
    "state_id": 4037
  },
  {
    "country_code": "IN",
    "country_id": 101,
    "id": 133581,
    "latitude": "24.81757000",
    "longitude": "84.63445000",
    "name": "Rafiganj",
    "state_code": "BR",
    "state_id": 4037
  },
  {
    "country_code": "IN",
    "country_id": 101,
    "id": 133582,
    "latitude": "25.64492000",
    "longitude": "87.91762000",
    "name": "Raghunathpur",
    "state_code": "BR",
    "state_id": 4037
  },
  {
    "country_code": "IN",
    "country_id": 101,
    "id": 133678,
    "latitude": "25.02828000",
    "longitude": "85.42079000",
    "name": "Rajgir",
    "state_code": "BR",
    "state_id": 4037
  },
  {
    "country_code": "IN",
    "country_id": 101,
    "id": 133701,
    "latitude": "27.16371000",
    "longitude": "84.32342000",
    "name": "Ramnagar",
    "state_code": "BR",
    "state_id": 4037
  },
  {
    "country_code": "IN",
    "country_id": 101,
    "id": 133621,
    "latitude": "26.97982000",
    "longitude": "84.85065000",
    "name": "Raxaul",
    "state_code": "BR",
    "state_id": 4037
  },
  {
    "country_code": "IN",
    "country_id": 101,
    "id": 133632,
    "latitude": "25.78976000",
    "longitude": "84.63596000",
    "name": "Revelganj",
    "state_code": "BR",
    "state_id": 4037
  },
  {
    "country_code": "IN",
    "country_id": 101,
    "id": 133648,
    "latitude": "24.97941000",
    "longitude": "84.02774000",
    "name": "Rohtas",
    "state_code": "BR",
    "state_id": 4037
  },
  {
    "country_code": "IN",
    "country_id": 101,
    "id": 133656,
    "latitude": "25.75355000",
    "longitude": "86.02597000",
    "name": "Rusera",
    "state_code": "BR",
    "state_id": 4037
  },
  {
    "country_code": "IN",
    "country_id": 101,
    "id": 133748,
    "latitude": "26.76390000",
    "longitude": "84.74341000",
    "name": "Sagauli",
    "state_code": "BR",
    "state_id": 4037
  },
  {
    "country_code": "IN",
    "country_id": 101,
    "id": 133749,
    "latitude": "25.87498000",
    "longitude": "86.59611000",
    "name": "Saharsa",
    "state_code": "BR",
    "state_id": 4037
  },
  {
    "country_code": "IN",
    "country_id": 101,
    "id": 133767,
    "latitude": "25.75000000",
    "longitude": "85.91667000",
    "name": "Samastipur",
    "state_code": "BR",
    "state_id": 4037
  },
  {
    "country_code": "IN",
    "country_id": 101,
    "id": 134076,
    "latitude": "25.91667000",
    "longitude": "84.75000000",
    "name": "Saran",
    "state_code": "BR",
    "state_id": 4037
  },
  {
    "country_code": "IN",
    "country_id": 101,
    "id": 133852,
    "latitude": "26.30511000",
    "longitude": "87.28865000",
    "name": "Shahbazpur",
    "state_code": "BR",
    "state_id": 4037
  },
  {
    "country_code": "IN",
    "country_id": 101,
    "id": 133902,
    "latitude": "25.60293000",
    "longitude": "84.40412000",
    "name": "Shahpur",
    "state_code": "BR",
    "state_id": 4037
  },
  {
    "country_code": "IN",
    "country_id": 101,
    "id": 133858,
    "latitude": "25.13073000",
    "longitude": "85.78176000",
    "name": "Sheikhpura",
    "state_code": "BR",
    "state_id": 4037
  },
  {
    "country_code": "IN",
    "country_id": 101,
    "id": 133860,
    "latitude": "26.50000000",
    "longitude": "85.30000000",
    "name": "Sheohar",
    "state_code": "BR",
    "state_id": 4037
  },
  {
    "country_code": "IN",
    "country_id": 101,
    "id": 133863,
    "latitude": "24.55950000",
    "longitude": "84.79162000",
    "name": "Sherghati",
    "state_code": "BR",
    "state_id": 4037
  },
  {
    "country_code": "IN",
    "country_id": 101,
    "id": 133933,
    "latitude": "25.08358000",
    "longitude": "85.42804000",
    "name": "Silao",
    "state_code": "BR",
    "state_id": 4037
  },
  {
    "country_code": "IN",
    "country_id": 101,
    "id": 134089,
    "latitude": "26.66667000",
    "longitude": "85.50000000",
    "name": "Sitamarhi",
    "state_code": "BR",
    "state_id": 4037
  },
  {
    "country_code": "IN",
    "country_id": 101,
    "id": 133977,
    "latitude": "26.22096000",
    "longitude": "84.35609000",
    "name": "Siwan",
    "state_code": "BR",
    "state_id": 4037
  },
  {
    "country_code": "IN",
    "country_id": 101,
    "id": 134049,
    "latitude": "26.25000000",
    "longitude": "86.80000000",
    "name": "Supaul",
    "state_code": "BR",
    "state_id": 4037
  },
  {
    "country_code": "IN",
    "country_id": 101,
    "id": 134121,
    "latitude": "25.49043000",
    "longitude": "85.94001000",
    "name": "Teghra",
    "state_code": "BR",
    "state_id": 4037
  },
  {
    "country_code": "IN",
    "country_id": 101,
    "id": 134127,
    "latitude": "24.94253000",
    "longitude": "84.84265000",
    "name": "Tekari",
    "state_code": "BR",
    "state_id": 4037
  },
  {
    "country_code": "IN",
    "country_id": 101,
    "id": 134163,
    "latitude": "26.42742000",
    "longitude": "88.13112000",
    "name": "Thakurganj",
    "state_code": "BR",
    "state_id": 4037
  },
  {
    "country_code": "IN",
    "country_id": 101,
    "id": 134314,
    "latitude": "25.75000000",
    "longitude": "85.41667000",
    "name": "Vaishali",
    "state_code": "BR",
    "state_id": 4037
  },
  {
    "country_code": "IN",
    "country_id": 101,
    "id": 134417,
    "latitude": "25.01720000",
    "longitude": "85.64047000",
    "name": "Waris Aliganj",
    "state_code": "BR",
    "state_id": 4037
  },
  {
    "country_code": "IN",
    "country_id": 101,
    "id": 58190,
    "latitude": "30.73629000",
    "longitude": "76.78840000",
    "name": "Chandigarh",
    "state_code": "CH",
    "state_id": 4031
  },
  {
    "country_code": "IN",
    "country_id": 101,
    "id": 57619,
    "latitude": "22.02463000",
    "longitude": "82.42641000",
    "name": "Akaltara",
    "state_code": "CT",
    "state_id": 4040
  },
  {
    "country_code": "IN",
    "country_id": 101,
    "id": 57672,
    "latitude": "20.77644000",
    "longitude": "80.74608000",
    "name": "Ambagarh Chauki",
    "state_code": "CT",
    "state_id": 4040
  },
  {
    "country_code": "IN",
    "country_id": 101,
    "id": 57670,
    "latitude": "23.11892000",
    "longitude": "83.19537000",
    "name": "Ambikapur",
    "state_code": "CT",
    "state_id": 4040
  },
  {
    "country_code": "IN",
    "country_id": 101,
    "id": 57728,
    "latitude": "21.19639000",
    "longitude": "81.96912000",
    "name": "Arang",
    "state_code": "CT",
    "state_id": 4040
  },
  {
    "country_code": "IN",
    "country_id": 101,
    "id": 57812,
    "latitude": "23.26206000",
    "longitude": "82.56051000",
    "name": "Baikunthpur",
    "state_code": "CT",
    "state_id": 4040
  },
  {
    "country_code": "IN",
    "country_id": 101,
    "id": 57830,
    "latitude": "20.73081000",
    "longitude": "81.20578000",
    "name": "Balod",
    "state_code": "CT",
    "state_id": 4040
  },
  {
    "country_code": "IN",
    "country_id": 101,
    "id": 57831,
    "latitude": "22.13890000",
    "longitude": "82.48171000",
    "name": "Baloda",
    "state_code": "CT",
    "state_id": 4040
  },
  {
    "country_code": "IN",
    "country_id": 101,
    "id": 57832,
    "latitude": "21.65678000",
    "longitude": "82.16062000",
    "name": "Baloda Bazar",
    "state_code": "CT",
    "state_id": 4040
  },
  {
    "country_code": "IN",
    "country_id": 101,
    "id": 57898,
    "latitude": "21.27885000",
    "longitude": "82.82670000",
    "name": "Basna",
    "state_code": "CT",
    "state_id": 4040
  },
  {
    "country_code": "IN",
    "country_id": 101,
    "id": 57900,
    "latitude": "19.26794000",
    "longitude": "81.73828000",
    "name": "Bastar",
    "state_code": "CT",
    "state_id": 4040
  },
  {
    "country_code": "IN",
    "country_id": 101,
    "id": 57931,
    "latitude": "21.71556000",
    "longitude": "81.53423000",
    "name": "Bemetara",
    "state_code": "CT",
    "state_id": 4040
  },
  {
    "country_code": "IN",
    "country_id": 101,
    "id": 58013,
    "latitude": "21.09190000",
    "longitude": "80.93218000",
    "name": "Bhanpuri",
    "state_code": "CT",
    "state_id": 4040
  },
  {
    "country_code": "IN",
    "country_id": 101,
    "id": 58015,
    "latitude": "21.73500000",
    "longitude": "81.94711000",
    "name": "Bhatapara",
    "state_code": "CT",
    "state_id": 4040
  },
  {
    "country_code": "IN",
    "country_id": 101,
    "id": 57969,
    "latitude": "21.15000000",
    "longitude": "81.70000000",
    "name": "Bhatgaon",
    "state_code": "CT",
    "state_id": 4040
  },
  {
    "country_code": "IN",
    "country_id": 101,
    "id": 57981,
    "latitude": "21.20919000",
    "longitude": "81.42850000",
    "name": "Bhilai",
    "state_code": "CT",
    "state_id": 4040
  },
  {
    "country_code": "IN",
    "country_id": 101,
    "id": 58032,
    "latitude": "18.84322000",
    "longitude": "80.77610000",
    "name": "Bijapur",
    "state_code": "CT",
    "state_id": 4040
  },
  {
    "country_code": "IN",
    "country_id": 101,
    "id": 58055,
    "latitude": "22.38333000",
    "longitude": "82.13333000",
    "name": "Bilaspur",
    "state_code": "CT",
    "state_id": 4040
  },
  {
    "country_code": "IN",
    "country_id": 101,
    "id": 131593,
    "latitude": "22.03532000",
    "longitude": "82.64234000",
    "name": "Champa",
    "state_code": "CT",
    "state_id": 4040
  },
  {
    "country_code": "IN",
    "country_id": 101,
    "id": 131538,
    "latitude": "21.52316000",
    "longitude": "80.99788000",
    "name": "Chhuikhadan",
    "state_code": "CT",
    "state_id": 4040
  },
  {
    "country_code": "IN",
    "country_id": 101,
    "id": 131690,
    "latitude": "21.45000000",
    "longitude": "82.61667000",
    "name": "Deori",
    "state_code": "CT",
    "state_id": 4040
  },
  {
    "country_code": "IN",
    "country_id": 101,
    "id": 131712,
    "latitude": "20.70718000",
    "longitude": "81.54874000",
    "name": "Dhamtari",
    "state_code": "CT",
    "state_id": 4040
  },
  {
    "country_code": "IN",
    "country_id": 101,
    "id": 131787,
    "latitude": "20.97172000",
    "longitude": "80.85077000",
    "name": "Dongargaon",
    "state_code": "CT",
    "state_id": 4040
  },
  {
    "country_code": "IN",
    "country_id": 101,
    "id": 131788,
    "latitude": "21.18893000",
    "longitude": "80.75459000",
    "name": "Dongargarh",
    "state_code": "CT",
    "state_id": 4040
  },
  {
    "country_code": "IN",
    "country_id": 101,
    "id": 131801,
    "latitude": "21.15000000",
    "longitude": "81.40000000",
    "name": "Durg",
    "state_code": "CT",
    "state_id": 4040
  },
  {
    "country_code": "IN",
    "country_id": 101,
    "id": 131897,
    "latitude": "21.66667000",
    "longitude": "81.10013000",
    "name": "Gandai",
    "state_code": "CT",
    "state_id": 4040
  },
  {
    "country_code": "IN",
    "country_id": 101,
    "id": 131926,
    "latitude": "20.63323000",
    "longitude": "82.06221000",
    "name": "Gariaband",
    "state_code": "CT",
    "state_id": 4040
  },
  {
    "country_code": "IN",
    "country_id": 101,
    "id": 131927,
    "latitude": "22.75449000",
    "longitude": "81.90107000",
    "name": "Gaurela",
    "state_code": "CT",
    "state_id": 4040
  },
  {
    "country_code": "IN",
    "country_id": 101,
    "id": 131938,
    "latitude": "22.17427000",
    "longitude": "83.35170000",
    "name": "Gharghoda",
    "state_code": "CT",
    "state_id": 4040
  },
  {
    "country_code": "IN",
    "country_id": 101,
    "id": 132048,
    "latitude": "18.97431000",
    "longitude": "81.39894000",
    "name": "Gidam",
    "state_code": "CT",
    "state_id": 4040
  },
  {
    "country_code": "IN",
    "country_id": 101,
    "id": 132186,
    "latitude": "19.08136000",
    "longitude": "82.02131000",
    "name": "Jagdalpur",
    "state_code": "CT",
    "state_id": 4040
  },
  {
    "country_code": "IN",
    "country_id": 101,
    "id": 132312,
    "latitude": "22.00922000",
    "longitude": "82.57780000",
    "name": "Janjgir",
    "state_code": "CT",
    "state_id": 4040
  },
  {
    "country_code": "IN",
    "country_id": 101,
    "id": 132240,
    "latitude": "21.90000000",
    "longitude": "82.70000000",
    "name": "Janjgir-Champa",
    "state_code": "CT",
    "state_id": 4040
  },
  {
    "country_code": "IN",
    "country_id": 101,
    "id": 132244,
    "latitude": "22.78495000",
    "longitude": "83.84573000",
    "name": "Jashpur",
    "state_code": "CT",
    "state_id": 4040
  },
  {
    "country_code": "IN",
    "country_id": 101,
    "id": 132245,
    "latitude": "22.88783000",
    "longitude": "84.13864000",
    "name": "Jashpurnagar",
    "state_code": "CT",
    "state_id": 4040
  },
  {
    "country_code": "IN",
    "country_id": 101,
    "id": 132318,
    "latitude": "19.85993000",
    "longitude": "82.93385000",
    "name": "Junagarh",
    "state_code": "CT",
    "state_id": 4040
  },
  {
    "country_code": "IN",
    "country_id": 101,
    "id": 132319,
    "latitude": "22.10000000",
    "longitude": "81.20000000",
    "name": "Kabeerdham",
    "state_code": "CT",
    "state_id": 4040
  },
  {
    "country_code": "IN",
    "country_id": 101,
    "id": 132704,
    "latitude": "20.27193000",
    "longitude": "81.49177000",
    "name": "Kanker",
    "state_code": "CT",
    "state_id": 4040
  },
  {
    "country_code": "IN",
    "country_id": 101,
    "id": 132421,
    "latitude": "22.50247000",
    "longitude": "82.54279000",
    "name": "Katghora",
    "state_code": "CT",
    "state_id": 4040
  },
  {
    "country_code": "IN",
    "country_id": 101,
    "id": 132433,
    "latitude": "22.00853000",
    "longitude": "81.23148000",
    "name": "Kawardha",
    "state_code": "CT",
    "state_id": 4040
  },
  {
    "country_code": "IN",
    "country_id": 101,
    "id": 132456,
    "latitude": "21.41859000",
    "longitude": "80.97942000",
    "name": "Khairagarh",
    "state_code": "CT",
    "state_id": 4040
  },
  {
    "country_code": "IN",
    "country_id": 101,
    "id": 132463,
    "latitude": "20.97600000",
    "longitude": "82.25116000",
    "name": "Khamharia",
    "state_code": "CT",
    "state_id": 4040
  },
  {
    "country_code": "IN",
    "country_id": 101,
    "id": 132480,
    "latitude": "21.74420000",
    "longitude": "82.57880000",
    "name": "Kharod",
    "state_code": "CT",
    "state_id": 4040
  },
  {
    "country_code": "IN",
    "country_id": 101,
    "id": 132481,
    "latitude": "21.98953000",
    "longitude": "83.10476000",
    "name": "Kharsia",
    "state_code": "CT",
    "state_id": 4040
  },
  {
    "country_code": "IN",
    "country_id": 101,
    "id": 132525,
    "latitude": "18.63649000",
    "longitude": "81.25827000",
    "name": "Kirandul",
    "state_code": "CT",
    "state_id": 4040
  },
  {
    "country_code": "IN",
    "country_id": 101,
    "id": 132565,
    "latitude": "19.59083000",
    "longitude": "81.66400000",
    "name": "Kondagaon",
    "state_code": "CT",
    "state_id": 4040
  },
  {
    "country_code": "IN",
    "country_id": 101,
    "id": 132581,
    "latitude": "22.50000000",
    "longitude": "82.60000000",
    "name": "Korba",
    "state_code": "CT",
    "state_id": 4040
  },
  {
    "country_code": "IN",
    "country_id": 101,
    "id": 132583,
    "latitude": "23.48326000",
    "longitude": "82.15037000",
    "name": "Koriya",
    "state_code": "CT",
    "state_id": 4040
  },
  {
    "country_code": "IN",
    "country_id": 101,
    "id": 132612,
    "latitude": "22.29507000",
    "longitude": "82.02366000",
    "name": "Kota",
    "state_code": "CT",
    "state_id": 4040
  },
  {
    "country_code": "IN",
    "country_id": 101,
    "id": 132596,
    "latitude": "19.14256000",
    "longitude": "82.32536000",
    "name": "Kotaparh",
    "state_code": "CT",
    "state_id": 4040
  },
  {
    "country_code": "IN",
    "country_id": 101,
    "id": 132641,
    "latitude": "21.26667000",
    "longitude": "81.51667000",
    "name": "Kumhari",
    "state_code": "CT",
    "state_id": 4040
  },
  {
    "country_code": "IN",
    "country_id": 101,
    "id": 132661,
    "latitude": "20.83073000",
    "longitude": "81.72212000",
    "name": "Kurud",
    "state_code": "CT",
    "state_id": 4040
  },
  {
    "country_code": "IN",
    "country_id": 101,
    "id": 132777,
    "latitude": "22.27434000",
    "longitude": "81.70181000",
    "name": "Lormi",
    "state_code": "CT",
    "state_id": 4040
  },
  {
    "country_code": "IN",
    "country_id": 101,
    "id": 132827,
    "latitude": "21.20000000",
    "longitude": "82.50000000",
    "name": "Mahasamund",
    "state_code": "CT",
    "state_id": 4040
  },
  {
    "country_code": "IN",
    "country_id": 101,
    "id": 133031,
    "latitude": "22.06566000",
    "longitude": "81.68543000",
    "name": "Mungeli",
    "state_code": "CT",
    "state_id": 4040
  },
  {
    "country_code": "IN",
    "country_id": 101,
    "id": 133163,
    "latitude": "19.60426000",
    "longitude": "81.08119000",
    "name": "Narayanpur",
    "state_code": "CT",
    "state_id": 4040
  },
  {
    "country_code": "IN",
    "country_id": 101,
    "id": 133168,
    "latitude": "20.44892000",
    "longitude": "81.62004000",
    "name": "Narharpur",
    "state_code": "CT",
    "state_id": 4040
  },
  {
    "country_code": "IN",
    "country_id": 101,
    "id": 133346,
    "latitude": "22.22495000",
    "longitude": "81.40994000",
    "name": "Pandaria",
    "state_code": "CT",
    "state_id": 4040
  },
  {
    "country_code": "IN",
    "country_id": 101,
    "id": 133540,
    "latitude": "22.18714000",
    "longitude": "81.32815000",
    "name": "Pandatarai",
    "state_code": "CT",
    "state_id": 4040
  },
  {
    "country_code": "IN",
    "country_id": 101,
    "id": 133375,
    "latitude": "22.84412000",
    "longitude": "82.19823000",
    "name": "Pasan",
    "state_code": "CT",
    "state_id": 4040
  },
  {
    "country_code": "IN",
    "country_id": 101,
    "id": 133552,
    "latitude": "21.03333000",
    "longitude": "81.53333000",
    "name": "Patan",
    "state_code": "CT",
    "state_id": 4040
  },
  {
    "country_code": "IN",
    "country_id": 101,
    "id": 133379,
    "latitude": "22.55656000",
    "longitude": "83.46355000",
    "name": "Pathalgaon",
    "state_code": "CT",
    "state_id": 4040
  },